$GPHDT,359.99,T*0A
$GPTHS,359.99,A*08
$GPHDT,359.99,T*0A
$GPTHS,359.99,A*08
$GPHDT,359.99,T*0A
$GPTHS,359.99,A*08
$GPHDT,359.99,T*0A
$GPTHS,359.99,A*08
$GPROT,0.00,A*01
$GPHDT,359.99,T*0A
$GPTHS,359.99,A*08
$GPHDT,359.99,T*0A
$GPTHS,359.99,A*08
$GPVTG,000.0,T,000.0,M,000.1,N,000.1,K,A*23
$GPZDA,135100.87,30,01,2020,13,51*6B
$WIMWV,000.0,R,000.0,M,A*20
$SDDPT,200.0,000.0*55
$GPGGA,135100.87,6024.530610,N,00516.368158,E,2,08,1.7,31.0,M,10.0,M,10.0,1021*44
$GPHDT,359.99,T*0A
$GPTHS,359.99,A*08
$GPHDT,359.99,T*0A
$GPTHS,359.99,A*08
$GPHDT,359.99,T*0A
$GPTHS,359.99,A*08
$GPROT,0.00,A*01
$GPHDT,359.99,T*0A
$GPTHS,359.99,A*08
$GPHDT,359.99,T*0A
$GPTHS,359.99,A*08
$GPHDT,359.99,T*0A
$GPTHS,359.99,A*08
$GPHDT,359.99,T*0A
$GPTHS,359.99,A*08
$GPHDT,359.99,T*0A
$GPTHS,359.99,A*08
$GPROT,0.00,A*01
$GPHDT,359.99,T*0A
$GPTHS,359.99,A*08
$GPVTG,000.0,T,000.0,M,000.1,N,000.1,K,A*23
$GPZDA,135101.82,30,01,2020,13,51*6F
$WIMWV,000.0,R,000.0,M,A*20
$SDDPT,200.0,000.0*55
$GPHDT,359.99,T*0A
$GPTHS,359.99,A*08
$GPHDT,359.99,T*0A
$GPTHS,359.99,A*08
$GPHDT,359.99,T*0A
$GPTHS,359.99,A*08
$GPHDT,359.99,T*0A
$GPTHS,359.99,A*08
$GPROT,0.00,A*01
$GPHDT,359.99,T*0A
$GPTHS,359.99,A*08
$GPHDT,359.99,T*0A
$GPTHS,359.99,A*08
$GPHDT,359.99,T*0A
$GPTHS,359.99,A*08
$GPHDT,359.99,T*0A
$GPTHS,359.99,A*08
$GPHDT,359.99,T*0A
$GPTHS,359.99,A*08
$GPROT,0.00,A*01
$GPHDT,359.99,T*0A
$GPTHS,359.99,A*08
$GPVTG,000.0,T,000.0,M,000.1,N,000.1,K,A*23
$GPZDA,135102.78,30,01,2020,13,51*69
$WIMWV,000.0,R,000.0,M,A*20
$SDDPT,200.0,000.0*55
$GPGGA,135102.81,6024.530640,N,00516.368134,E,2,08,1.7,31.0,M,10.0,M,10.0,1021*4F
$GPHDT,359.99,T*0A
$GPTHS,359.99,A*08
$GPHDT,359.99,T*0A
$GPTHS,359.99,A*08
$GPHDT,359.99,T*0A
$GPTHS,359.99,A*08
$GPHDT,359.99,T*0A
$GPTHS,359.99,A*08
$GPROT,0.00,A*01
$GPHDT,359.99,T*0A
$GPTHS,359.99,A*08
$GPHDT,359.99,T*0A
$GPTHS,359.99,A*08
$GPHDT,359.99,T*0A
$GPTHS,359.99,A*08
$GPHDT,359.99,T*0A
$GPTHS,359.99,A*08
$GPHDT,359.99,T*0A
$GPTHS,359.99,A*08
$GPROT,0.00,A*01
$GPHDT,359.99,T*0A
$GPTHS,359.99,A*08
$GPVTG,000.0,T,000.0,M,000.1,N,000.1,K,A*23
$GPZDA,135103.73,30,01,2020,13,51*63
$WIMWV,000.0,R,000.0,M,A*20
$SDDPT,200.0,000.0*55
$GPHDT,359.99,T*0A
$GPTHS,359.99,A*08
$GPHDT,359.99,T*0A
$GPTHS,359.99,A*08
$GPHDT,359.99,T*0A
$GPTHS,359.99,A*08
$GPHDT,359.99,T*0A
$GPTHS,359.99,A*08
$GPROT,0.00,A*01
$GPHDT,359.99,T*0A
$GPTHS,359.99,A*08
$GPHDT,359.99,T*0A
$GPTHS,359.99,A*08
$GPHDT,359.99,T*0A
$GPTHS,359.99,A*08
$GPHDT,359.99,T*0A
$GPTHS,359.99,A*08
$GPHDT,359.99,T*0A
$GPTHS,359.99,A*08
$GPVTG,000.0,T,000.0,M,000.1,N,000.1,K,A*23
$GPZDA,135104.68,30,01,2020,13,51*6E
$WIMWV,000.0,R,000.0,M,A*20
$SDDPT,200.0,000.0*55
$GPROT,0.00,A*01
$GPHDT,359.99,T*0A
$GPTHS,359.99,A*08
$GPGGA,135104.75,6024.530672,N,00516.368108,E,2,08,1.7,31.0,M,10.0,M,10.0,1021*4C
$GPHDT,359.99,T*0A
$GPTHS,359.99,A*08
$GPHDT,359.99,T*0A
$GPTHS,359.99,A*08
$GPHDT,359.99,T*0A
$GPTHS,359.99,A*08
$GPHDT,359.99,T*0A
$GPTHS,359.99,A*08
$GPROT,0.00,A*01
$GPHDT,359.99,T*0A
$GPTHS,359.99,A*08
$GPHDT,359.99,T*0A
$GPTHS,359.99,A*08
$GPHDT,359.99,T*0A
$GPTHS,359.99,A*08
$GPHDT,359.99,T*0A
$GPTHS,359.99,A*08
$GPHDT,359.99,T*0A
$GPTHS,359.99,A*08
$GPVTG,000.0,T,000.0,M,000.1,N,000.1,K,A*23
$GPZDA,135105.63,30,01,2020,13,51*64
$WIMWV,000.0,R,000.0,M,A*20
$SDDPT,200.0,000.0*55
$GPROT,0.00,A*01
$GPHDT,359.99,T*0A
$GPTHS,359.99,A*08
$GPHDT,359.99,T*0A
$GPTHS,359.99,A*08
$GPHDT,359.99,T*0A
$GPTHS,359.99,A*08
$GPHDT,359.99,T*0A
$GPTHS,359.99,A*08
$GPHDT,359.99,T*0A
$GPTHS,359.99,A*08
$GPROT,0.00,A*01
$GPHDT,359.99,T*0A
$GPTHS,359.99,A*08
$GPHDT,359.99,T*0A
$GPTHS,359.99,A*08
$GPHDT,359.99,T*0A
$GPTHS,359.99,A*08
$GPHDT,359.99,T*0A
$GPTHS,359.99,A*08
$GPHDT,359.99,T*0A
$GPTHS,359.99,A*08
$GPVTG,000.0,T,000.0,M,000.1,N,000.1,K,A*23
$GPZDA,135106.58,30,01,2020,13,51*6F
$WIMWV,000.0,R,000.0,M,A*20
$SDDPT,200.0,000.0*55
$GPROT,0.00,A*01
$GPHDT,359.99,T*0A
$GPTHS,359.99,A*08
$GPGGA,135106.69,6024.530703,N,00516.368083,E,2,08,1.7,31.0,M,10.0,M,10.0,1021*46
$GPHDT,359.99,T*0A
$GPTHS,359.99,A*08
$GPHDT,359.99,T*0A
$GPTHS,359.99,A*08
$GPHDT,359.99,T*0A
$GPTHS,359.99,A*08
$GPHDT,359.99,T*0A
$GPTHS,359.99,A*08
$GPROT,0.00,A*01
$GPHDT,359.99,T*0A
$GPTHS,359.99,A*08
$GPHDT,359.99,T*0A
$GPTHS,359.99,A*08
$GPHDT,359.99,T*0A
$GPTHS,359.99,A*08
$GPHDT,359.99,T*0A
$GPTHS,359.99,A*08
$GPVTG,000.0,T,000.0,M,000.1,N,000.1,K,A*23
$GPZDA,135107.54,30,01,2020,13,51*62
$WIMWV,000.0,R,000.0,M,A*20
$SDDPT,200.0,000.0*55
$GPHDT,359.99,T*0A
$GPTHS,359.99,A*08
$GPROT,0.00,A*01
$GPHDT,359.99,T*0A
$GPTHS,359.99,A*08
$GPHDT,359.99,T*0A
$GPTHS,359.99,A*08
$GPHDT,359.99,T*0A
$GPTHS,359.99,A*08
$GPHDT,359.99,T*0A
$GPTHS,359.99,A*08
$GPHDT,359.99,T*0A
$GPTHS,359.99,A*08
$GPROT,0.00,A*01
$GPHDT,359.99,T*0A
$GPTHS,359.99,A*08
$GPHDT,359.99,T*0A
$GPTHS,359.99,A*08
$GPHDT,359.99,T*0A
$GPTHS,359.99,A*08
$GPHDT,359.99,T*0A
$GPTHS,359.99,A*08
$GPVTG,000.0,T,000.0,M,000.1,N,000.1,K,A*23
$GPZDA,135108.49,30,01,2020,13,51*61
$WIMWV,000.0,R,000.0,M,A*20
$SDDPT,200.0,000.0*55
$GPHDT,359.99,T*0A
$GPTHS,359.99,A*08
$GPROT,0.00,A*01
$GPGGA,135108.62,6024.530735,N,00516.368058,E,2,08,1.7,31.0,M,10.0,M,10.0,1021*40
$GPHDT,359.99,T*0A
$GPTHS,359.99,A*08
$GPHDT,359.99,T*0A
$GPTHS,359.99,A*08
$GPHDT,359.99,T*0A
$GPTHS,359.99,A*08
$GPHDT,359.99,T*0A
$GPTHS,359.99,A*08
$GPHDT,359.99,T*0A
$GPTHS,359.99,A*08
$GPROT,0.00,A*01
$GPHDT,359.99,T*0A
$GPTHS,359.99,A*08
$GPHDT,359.99,T*0A
$GPTHS,359.99,A*08
$GPHDT,359.99,T*0A
$GPTHS,359.99,A*08
$GPHDT,359.99,T*0A
$GPTHS,359.99,A*08
$GPVTG,000.0,T,000.0,M,000.1,N,000.1,K,A*23
$GPZDA,135109.44,30,01,2020,13,51*6D
$WIMWV,000.0,R,000.0,M,A*20
$SDDPT,200.0,000.0*55
$GPHDT,359.99,T*0A
$GPTHS,359.99,A*08
$GPROT,0.00,A*01
$GPHDT,359.99,T*0A
$GPTHS,359.99,A*08
$GPHDT,359.99,T*0A
$GPTHS,359.99,A*08
$GPHDT,359.99,T*0A
$GPTHS,359.99,A*08
$GPHDT,359.99,T*0A
$GPTHS,359.99,A*08
$GPHDT,359.99,T*0A
$GPTHS,359.99,A*08
$GPROT,0.00,A*01
$GPHDT,359.99,T*0A
$GPTHS,359.99,A*08
$GPHDT,359.99,T*0A
$GPTHS,359.99,A*08
$GPHDT,359.99,T*0A
$GPTHS,359.99,A*08
$GPVTG,000.0,T,000.0,M,000.1,N,000.1,K,A*23
$GPZDA,135110.39,30,01,2020,13,51*6F
$WIMWV,000.0,R,000.0,M,A*20
$SDDPT,200.0,000.0*55
$GPHDT,359.99,T*0A
$GPTHS,359.99,A*08
$GPHDT,359.99,T*0A
$GPTHS,359.99,A*08
$GPGGA,135110.56,6024.530765,N,00516.368033,E,2,08,1.7,31.0,M,10.0,M,10.0,1021*46
$GPROT,0.00,A*01
$GPHDT,359.99,T*0A
$GPTHS,359.99,A*08
$GPHDT,359.99,T*0A
$GPTHS,359.99,A*08
$GPHDT,359.99,T*0A
$GPTHS,359.99,A*08
$GPHDT,359.99,T*0A
$GPTHS,359.99,A*08
$GPHDT,359.99,T*0A
$GPTHS,359.99,A*08
$GPROT,0.00,A*01
$GPHDT,359.99,T*0A
$GPTHS,359.99,A*08
$GPHDT,359.99,T*0A
$GPTHS,359.99,A*08
$GPHDT,359.99,T*0A
$GPTHS,359.99,A*08
$GPVTG,000.0,T,000.0,M,000.1,N,000.1,K,A*23
$GPZDA,135111.34,30,01,2020,13,51*63
$WIMWV,000.0,R,000.0,M,A*20
$SDDPT,200.0,000.0*55
$GPHDT,359.99,T*0A
$GPTHS,359.99,A*08
$GPHDT,359.99,T*0A
$GPTHS,359.99,A*08
$GPROT,0.00,A*01
$GPHDT,359.99,T*0A
$GPTHS,359.99,A*08
$GPHDT,359.99,T*0A
$GPTHS,359.99,A*08
$GPHDT,359.99,T*0A
$GPTHS,359.99,A*08
$GPHDT,359.99,T*0A
$GPTHS,359.99,A*08
$GPHDT,359.99,T*0A
$GPTHS,359.99,A*08
$GPROT,0.00,A*01
$GPHDT,359.99,T*0A
$GPTHS,359.99,A*08
$GPHDT,359.99,T*0A
$GPTHS,359.99,A*08
$GPHDT,359.99,T*0A
$GPTHS,359.99,A*08
$GPVTG,000.0,T,000.0,M,000.1,N,000.1,K,A*23
$GPZDA,135112.30,30,01,2020,13,51*64
$WIMWV,000.0,R,000.0,M,A*20
$SDDPT,200.0,000.0*55
$GPHDT,359.99,T*0A
$GPTHS,359.99,A*08
$GPHDT,359.99,T*0A
$GPTHS,359.99,A*08
$GPGGA,135112.50,6024.530797,N,00516.368010,E,2,08,1.7,31.0,M,10.0,M,10.0,1021*4E
$GPROT,0.00,A*01
$GPHDT,359.99,T*0A
$GPTHS,359.99,A*08
$GPHDT,359.99,T*0A
$GPTHS,359.99,A*08
$GPHDT,359.99,T*0A
$GPTHS,359.99,A*08
$GPHDT,359.99,T*0A
$GPTHS,359.99,A*08
$GPHDT,359.99,T*0A
$GPTHS,359.99,A*08
$GPROT,0.00,A*01
$GPHDT,359.99,T*0A
$GPTHS,359.99,A*08
$GPHDT,359.99,T*0A
$GPTHS,359.99,A*08
$GPVTG,000.0,T,000.0,M,000.1,N,000.1,K,A*23
$GPZDA,135113.25,30,01,2020,13,51*61
$WIMWV,000.0,R,000.0,M,A*20
$SDDPT,200.0,000.0*55
$GPHDT,359.99,T*0A
$GPTHS,359.99,A*08
$GPHDT,359.99,T*0A
$GPTHS,359.99,A*08
$GPHDT,359.99,T*0A
$GPTHS,359.99,A*08
$GPROT,0.00,A*01
$GPHDT,359.99,T*0A
$GPTHS,359.99,A*08
$GPHDT,359.99,T*0A
$GPTHS,359.99,A*08
$GPHDT,359.99,T*0A
$GPTHS,359.99,A*08
$GPHDT,359.99,T*0A
$GPTHS,359.99,A*08
$GPHDT,359.99,T*0A
$GPTHS,359.99,A*08
$GPHDT,359.99,T*0A
$GPTHS,359.99,A*08
$GPHDT,359.99,T*0A
$GPTHS,359.99,A*08
$GPHDT,359.99,T*0A
$GPTHS,359.99,A*08
$GPROT,0.00,A*01
$GPHDT,359.99,T*0A
$GPTHS,359.99,A*08
$GPHDT,359.99,T*0A
$GPTHS,359.99,A*08
$GPHDT,359.99,T*0A
$GPTHS,359.99,A*08
$GPVTG,000.0,T,000.0,M,000.1,N,000.1,K,A*23
$GPZDA,135138.99,30,01,2020,13,51*6F
$WIMWV,000.0,R,000.0,M,A*20
$SDDPT,200.0,000.0*55
$GPHDT,359.99,T*0A
$GPTHS,359.99,A*08
$GPHDT,359.99,T*0A
$GPTHS,359.99,A*08
$GPROT,0.00,A*01
$GPHDT,359.99,T*0A
$GPTHS,359.99,A*08
$GPHDT,359.99,T*0A
$GPTHS,359.99,A*08
$GPHDT,359.99,T*0A
$GPTHS,359.99,A*08
$GPHDT,359.99,T*0A
$GPTHS,359.99,A*08
$GPHDT,359.99,T*0A
$GPTHS,359.99,A*08
$GPGGA,135139.63,6024.531190,N,00516.367963,E,2,08,1.7,31.0,M,10.0,M,10.0,1021*45
$GPROT,0.00,A*01
$GPHDT,359.99,T*0A
$GPTHS,359.99,A*08
$GPHDT,359.99,T*0A
$GPTHS,359.99,A*08
$GPHDT,359.99,T*0A
$GPTHS,359.99,A*08
$GPVTG,000.0,T,000.0,M,000.1,N,000.1,K,A*23
$GPZDA,135139.94,30,01,2020,13,51*63
$WIMWV,000.0,R,000.0,M,A*20
$SDDPT,200.0,000.0*55
$GPHDT,359.99,T*0A
$GPTHS,359.99,A*08
$GPHDT,359.99,T*0A
$GPTHS,359.99,A*08
$GPROT,0.00,A*01
$GPHDT,359.99,T*0A
$GPTHS,359.99,A*08
$GPHDT,359.99,T*0A
$GPTHS,359.99,A*08
$GPHDT,359.99,T*0A
$GPTHS,359.99,A*08
$GPHDT,359.99,T*0A
$GPTHS,359.99,A*08
$GPHDT,359.99,T*0A
$GPTHS,359.99,A*08
$GPROT,0.00,A*01
$GPHDT,359.99,T*0A
$GPTHS,359.99,A*08
$GPHDT,359.99,T*0A
$GPTHS,359.99,A*08
$GPHDT,359.99,T*0A
$GPTHS,359.99,A*08
$GPVTG,000.0,T,000.0,M,000.1,N,000.1,K,A*23
$GPZDA,135140.89,30,01,2020,13,51*61
$WIMWV,000.0,R,000.0,M,A*20
$SDDPT,200.0,000.0*55
$GPHDT,359.99,T*0A
$GPTHS,359.99,A*08
$GPHDT,359.99,T*0A
$GPTHS,359.99,A*08
$GPROT,0.00,A*01
$GPHDT,359.99,T*0A
$GPTHS,359.99,A*08
$GPHDT,359.99,T*0A
$GPTHS,359.99,A*08
$GPHDT,359.99,T*0A
$GPTHS,359.99,A*08
$GPHDT,359.99,T*0A
$GPTHS,359.99,A*08
$GPHDT,359.99,T*0A
$GPTHS,359.99,A*08
$GPGGA,135141.57,6024.531215,N,00516.367978,E,2,08,1.7,31.0,M,10.0,M,10.0,1021*49
$GPROT,0.00,A*01
$GPHDT,359.99,T*0A
$GPTHS,359.99,A*08
$GPHDT,359.99,T*0A
$GPTHS,359.99,A*08
$GPVTG,000.0,T,000.0,M,000.1,N,000.1,K,A*23
$GPZDA,135141.84,30,01,2020,13,51*6D
$WIMWV,000.0,R,000.0,M,A*20
$SDDPT,200.0,000.0*55
$GPHDT,359.99,T*0A
$GPTHS,359.99,A*08
$GPHDT,359.99,T*0A
$GPTHS,359.99,A*08
$GPHDT,359.99,T*0A
$GPTHS,359.99,A*08
$GPROT,0.00,A*01
$GPHDT,359.99,T*0A
$GPTHS,359.99,A*08
$GPHDT,359.99,T*0A
$GPTHS,359.99,A*08
$GPHDT,359.99,T*0A
$GPTHS,359.99,A*08
$GPHDT,359.99,T*0A
$GPTHS,359.99,A*08
$GPHDT,359.99,T*0A
$GPTHS,359.99,A*08
$GPROT,0.00,A*01
$GPHDT,359.99,T*0A
$GPTHS,359.99,A*08
$GPHDT,359.99,T*0A
$GPTHS,359.99,A*08
$GPVTG,000.0,T,000.0,M,000.1,N,000.1,K,A*23
$GPZDA,135142.79,30,01,2020,13,51*6C
$WIMWV,000.0,R,000.0,M,A*20
$SDDPT,200.0,000.0*55
$GPHDT,359.99,T*0A
$GPTHS,359.99,A*08
$GPHDT,359.99,T*0A
$GPTHS,359.99,A*08
$GPHDT,359.99,T*0A
$GPTHS,359.99,A*08
$GPROT,0.00,A*01
$GPHDT,359.99,T*0A
$GPTHS,359.99,A*08
$GPHDT,359.99,T*0A
$GPTHS,359.99,A*08
$GPHDT,359.99,T*0A
$GPTHS,359.99,A*08
$GPHDT,359.99,T*0A
$GPTHS,359.99,A*08
$GPGGA,135143.51,6024.531240,N,00516.367994,E,2,08,1.7,31.0,M,10.0,M,10.0,1021*4F
$GPHDT,359.99,T*0A
$GPTHS,359.99,A*08
$GPROT,0.00,A*01
$GPHDT,359.99,T*0A
$GPTHS,359.99,A*08
$GPHDT,359.99,T*0A
$GPTHS,359.99,A*08
$GPVTG,000.0,T,000.0,M,000.1,N,000.1,K,A*23
$GPZDA,135143.75,30,01,2020,13,51*61
$WIMWV,000.0,R,000.0,M,A*20
$SDDPT,200.0,000.0*55
$GPHDT,359.99,T*0A
$GPTHS,359.99,A*08
$GPHDT,359.99,T*0A
$GPTHS,359.99,A*08
$GPHDT,359.99,T*0A
$GPTHS,359.99,A*08
$GPROT,0.00,A*01
$GPHDT,359.99,T*0A
$GPTHS,359.99,A*08
$GPHDT,359.99,T*0A
$GPTHS,359.99,A*08
$GPHDT,359.99,T*0A
$GPTHS,359.99,A*08
$GPHDT,359.99,T*0A
$GPTHS,359.99,A*08
$GPHDT,359.99,T*0A
$GPTHS,359.99,A*08
$GPROT,0.00,A*01
$GPHDT,359.99,T*0A
$GPTHS,359.99,A*08
$GPVTG,000.0,T,000.0,M,000.1,N,000.1,K,A*23
$GPZDA,135144.70,30,01,2020,13,51*63
$WIMWV,000.0,R,000.0,M,A*20
$SDDPT,200.0,000.0*55
$GPHDT,359.99,T*0A
$GPTHS,359.99,A*08
$GPHDT,359.99,T*0A
$GPTHS,359.99,A*08
$GPHDT,359.99,T*0A
$GPTHS,359.99,A*08
$GPHDT,359.99,T*0A
$GPTHS,359.99,A*08
$GPROT,0.00,A*01
$GPHDT,359.99,T*0A
$GPTHS,359.99,A*08
$GPHDT,359.99,T*0A
$GPTHS,359.99,A*08
$GPHDT,359.99,T*0A
$GPTHS,359.99,A*08
$GPHDT,359.99,T*0A
$GPTHS,359.99,A*08
$GPGGA,135145.48,6024.531265,N,00516.368011,E,2,08,1.7,31.0,M,10.0,M,10.0,1021*4D
$GPHDT,359.99,T*0A
$GPTHS,359.99,A*08
$GPROT,0.00,A*01
$GPHDT,359.99,T*0A
$GPTHS,359.99,A*08
$GPVTG,000.0,T,000.0,M,000.1,N,000.1,K,A*23
$GPZDA,135145.65,30,01,2020,13,51*66
$WIMWV,000.0,R,000.0,M,A*20
$SDDPT,200.0,000.0*55
$GPHDT,359.99,T*0A
$GPTHS,359.99,A*08
$GPHDT,359.99,T*0A
$GPTHS,359.99,A*08
$GPHDT,359.99,T*0A
$GPTHS,359.99,A*08
$GPHDT,359.99,T*0A
$GPTHS,359.99,A*08
$GPROT,0.00,A*01
$GPHDT,359.99,T*0A
$GPTHS,359.99,A*08
$GPHDT,359.99,T*0A
$GPTHS,359.99,A*08
$GPHDT,359.99,T*0A
$GPTHS,359.99,A*08
$GPHDT,359.99,T*0A
$GPTHS,359.99,A*08
$GPHDT,359.99,T*0A
$GPTHS,359.99,A*08
$GPROT,0.00,A*01
$GPHDT,359.99,T*0A
$GPTHS,359.99,A*08
$GPVTG,000.0,T,000.0,M,000.1,N,000.1,K,A*23
$GPZDA,135146.60,30,01,2020,13,51*60
$WIMWV,000.0,R,000.0,M,A*20
$SDDPT,200.0,000.0*55
$GPHDT,359.99,T*0A
$GPTHS,359.99,A*08
$GPHDT,359.99,T*0A
$GPTHS,359.99,A*08
$GPHDT,359.99,T*0A
$GPTHS,359.99,A*08
$GPHDT,359.99,T*0A
$GPTHS,359.99,A*08
$GPROT,0.00,A*01
$GPHDT,359.99,T*0A
$GPTHS,359.99,A*08
$GPHDT,359.99,T*0A
$GPTHS,359.99,A*08
$GPHDT,359.99,T*0A
$GPTHS,359.99,A*08
$GPHDT,359.99,T*0A
$GPTHS,359.99,A*08
$GPGGA,135147.42,6024.531289,N,00516.368029,E,2,08,1.7,31.0,M,10.0,M,10.0,1021*4C
$GPHDT,359.99,T*0A
$GPTHS,359.99,A*08
$GPVTG,000.0,T,000.0,M,000.1,N,000.1,K,A*23
$GPZDA,135147.55,30,01,2020,13,51*67
$WIMWV,000.0,R,000.0,M,A*20
$SDDPT,200.0,000.0*55
$GPROT,0.00,A*01
$GPHDT,359.99,T*0A
$GPTHS,359.99,A*08
$GPHDT,359.99,T*0A
$GPTHS,359.99,A*08
$GPHDT,359.99,T*0A
$GPTHS,359.99,A*08
$GPHDT,359.99,T*0A
$GPTHS,359.99,A*08
$GPHDT,359.99,T*0A
$GPTHS,359.99,A*08
$GPROT,0.00,A*01
$GPHDT,359.99,T*0A
$GPTHS,359.99,A*08
$GPHDT,359.99,T*0A
$GPTHS,359.99,A*08
$GPHDT,359.99,T*0A
$GPTHS,359.99,A*08
$GPHDT,359.99,T*0A
$GPTHS,359.99,A*08
$GPHDT,359.99,T*0A
$GPTHS,359.99,A*08
$GPVTG,000.0,T,000.0,M,000.1,N,000.1,K,A*23
$GPZDA,135148.51,30,01,2020,13,51*6C
$WIMWV,000.0,R,000.0,M,A*20
$SDDPT,200.0,000.0*55
$GPROT,0.00,A*01
$GPHDT,359.99,T*0A
$GPTHS,359.99,A*08
$GPHDT,359.99,T*0A
$GPTHS,359.99,A*08
$GPHDT,359.99,T*0A
$GPTHS,359.99,A*08
$GPHDT,359.99,T*0A
$GPTHS,359.99,A*08
$GPHDT,359.99,T*0A
$GPTHS,359.99,A*08
$GPROT,0.00,A*01
$GPHDT,359.99,T*0A
$GPTHS,359.99,A*08
$GPHDT,359.99,T*0A
$GPTHS,359.99,A*08
$GPHDT,359.99,T*0A
$GPTHS,359.99,A*08
$GPGGA,135149.36,6024.531315,N,00516.368047,E,2,08,1.7,31.0,M,10.0,M,10.0,1021*4D
$GPHDT,359.99,T*0A
$GPTHS,359.99,A*08
$GPHDT,359.99,T*0A
$GPTHS,359.99,A*08
$GPVTG,000.0,T,000.0,M,000.1,N,000.1,K,A*23
$GPZDA,135149.46,30,01,2020,13,51*6B
$WIMWV,000.0,R,000.0,M,A*20
$SDDPT,200.0,000.0*55
$GPROT,0.00,A*01
$GPHDT,359.99,T*0A
$GPTHS,359.99,A*08
$GPHDT,359.99,T*0A
$GPTHS,359.99,A*08
$GPHDT,359.99,T*0A
$GPTHS,359.99,A*08
$GPHDT,359.99,T*0A
$GPTHS,359.99,A*08
$GPHDT,359.99,T*0A
$GPTHS,359.99,A*08
$GPROT,0.00,A*01
$GPHDT,359.99,T*0A
$GPTHS,359.99,A*08
$GPHDT,359.99,T*0A
$GPTHS,359.99,A*08
$GPHDT,359.99,T*0A
$GPTHS,359.99,A*08
$GPHDT,359.99,T*0A
$GPTHS,359.99,A*08
$GPVTG,000.0,T,000.0,M,000.1,N,000.1,K,A*23
$GPZDA,135150.41,30,01,2020,13,51*64
$WIMWV,000.0,R,000.0,M,A*20
$SDDPT,200.0,000.0*55
$GPHDT,359.99,T*0A
$GPTHS,359.99,A*08
$GPROT,0.00,A*01
$GPHDT,359.99,T*0A
$GPTHS,359.99,A*08
$GPHDT,359.99,T*0A
$GPTHS,359.99,A*08
$GPHDT,359.99,T*0A
$GPTHS,359.99,A*08
$GPHDT,359.99,T*0A
$GPTHS,359.99,A*08
$GPHDT,359.99,T*0A
$GPTHS,359.99,A*08
$GPROT,0.00,A*01
$GPHDT,359.99,T*0A
$GPTHS,359.99,A*08
$GPHDT,359.99,T*0A
$GPTHS,359.99,A*08
$GPHDT,359.99,T*0A
$GPTHS,359.99,A*08
$GPGGA,135151.29,6024.531339,N,00516.368064,E,2,08,1.7,31.0,M,10.0,M,10.0,1021*45
$GPHDT,359.99,T*0A
$GPTHS,359.99,A*08
$GPVTG,000.0,T,000.0,M,000.1,N,000.1,K,A*23
$GPZDA,135151.40,30,01,2020,13,51*64
$WIMWV,000.0,R,000.0,M,A*20
$SDDPT,200.0,000.0*55
$GPHDT,359.99,T*0A
$GPTHS,359.99,A*08
$GPROT,0.00,A*01
$GPHDT,359.99,T*0A
$GPTHS,359.99,A*08
$GPHDT,359.99,T*0A
$GPTHS,359.99,A*08
$GPHDT,359.99,T*0A
$GPTHS,359.99,A*08
$GPHDT,359.99,T*0A
$GPTHS,359.99,A*08
$GPHDT,359.99,T*0A
$GPTHS,359.99,A*08
$GPROT,-0.47,A*2F
$GPHDT,359.99,T*0A
$GPTHS,359.99,A*08
$GPHDT,359.99,T*0A
$GPTHS,359.99,A*08
$GPHDT,359.99,T*0A
$GPTHS,359.99,A*08
$GPHDT,359.98,T*0B
$GPTHS,359.98,A*09
$GPVTG,355.3,T,355.3,M,000.0,N,000.1,K,A*22
$GPZDA,135152.35,30,01,2020,13,51*65
$WIMWV,011.2,R,000.0,M,A*22
$SDDPT,200.0,000.0*55
$GPHDT,359.98,T*0B
$GPTHS,359.98,A*09
$GPROT,-1.44,A*2D
$GPHDT,359.98,T*0B
$GPTHS,359.98,A*09
$GPHDT,359.97,T*04
$GPTHS,359.97,A*06
$GPHDT,359.97,T*04
$GPTHS,359.97,A*06
$GPHDT,359.97,T*04
$GPTHS,359.97,A*06
$GPHDT,359.97,T*04
$GPTHS,359.97,A*06
$GPROT,-1.82,A*27
$GPHDT,359.96,T*05
$GPTHS,359.96,A*07
$GPHDT,359.96,T*05
$GPTHS,359.96,A*07
$GPHDT,359.96,T*05
$GPTHS,359.96,A*07
$GPGGA,135153.23,6024.531397,N,00516.368081,E,2,08,1.7,31.0,M,10.0,M,10.0,1021*42
$GPVTG,000.0,T,000.0,M,000.4,N,000.8,K,A*2F
$GPZDA,135153.30,30,01,2020,13,51*61
$WIMWV,359.2,R,000.2,M,A*2F
$SDDPT,200.0,000.0*55
$GPHDT,359.95,T*06
$GPTHS,359.95,A*04
$GPHDT,359.95,T*06
$GPTHS,359.95,A*04
$GPROT,-1.82,A*27
$GPHDT,359.95,T*06
$GPTHS,359.95,A*04
$GPHDT,359.94,T*07
$GPTHS,359.94,A*05
$GPHDT,359.94,T*07
$GPTHS,359.94,A*05
$GPHDT,359.94,T*07
$GPTHS,359.94,A*05
$GPHDT,359.94,T*07
$GPTHS,359.94,A*05
$GPROT,-1.75,A*2F
$GPHDT,359.93,T*00
$GPTHS,359.93,A*02
$GPHDT,359.93,T*00
$GPTHS,359.93,A*02
$GPHDT,359.93,T*00
$GPTHS,359.93,A*02
$GPVTG,359.8,T,359.8,M,000.9,N,001.7,K,A*2C
$GPZDA,135154.25,30,01,2020,13,51*62
$WIMWV,000.5,R,000.5,M,A*20
$SDDPT,200.0,000.0*55
$GPHDT,359.92,T*01
$GPTHS,359.92,A*03
$GPHDT,359.92,T*01
$GPTHS,359.92,A*03
$GPROT,-1.75,A*2F
$GPHDT,359.92,T*01
$GPTHS,359.92,A*03
$GPHDT,359.92,T*01
$GPTHS,359.92,A*03
$GPHDT,359.91,T*02
$GPTHS,359.91,A*00
$GPHDT,359.91,T*02
$GPTHS,359.91,A*00
$GPHDT,359.91,T*02
$GPTHS,359.91,A*00
$GPROT,-1.69,A*22
$GPHDT,359.90,T*03
$GPTHS,359.90,A*01
$GPHDT,359.90,T*03
$GPTHS,359.90,A*01
$GPGGA,135155.17,6024.531883,N,00516.368100,E,2,08,1.7,31.0,M,10.0,M,10.0,1021*45
$GPHDT,359.90,T*03
$GPTHS,359.90,A*01
$GPVTG,359.9,T,359.9,M,001.6,N,003.0,K,A*27
$GPZDA,135155.20,30,01,2020,13,51*66
$WIMWV,359.9,R,000.8,M,A*2E
$SDDPT,200.0,000.0*55
$GPHDT,359.90,T*03
$GPTHS,359.90,A*01
$GPHDT,359.89,T*0B
$GPTHS,359.89,A*09
$GPROT,-1.69,A*22
$GPHDT,359.89,T*0B
$GPTHS,359.89,A*09
$GPHDT,359.89,T*0B
$GPTHS,359.89,A*09
$GPHDT,359.89,T*0B
$GPTHS,359.89,A*09
$GPHDT,359.88,T*0A
$GPTHS,359.88,A*08
$GPHDT,359.88,T*0A
$GPTHS,359.88,A*08
$GPROT,-1.55,A*2D
$GPHDT,359.88,T*0A
$GPTHS,359.88,A*08
$GPHDT,359.88,T*0A
$GPTHS,359.88,A*08
$GPVTG,359.9,T,359.9,M,002.7,N,005.0,K,A*23
$GPZDA,135156.16,30,01,2020,13,51*60
$WIMWV,000.1,R,001.4,M,A*24
$SDDPT,200.0,000.0*55
$GPHDT,359.87,T*05
$GPTHS,359.87,A*07
$GPHDT,359.87,T*05
$GPTHS,359.87,A*07
$GPHDT,359.87,T*05
$GPTHS,359.87,A*07
$GPROT,-2.24,A*28
$GPHDT,359.86,T*04
$GPTHS,359.86,A*06
$GPHDT,359.85,T*07
$GPTHS,359.85,A*05
$GPHDT,359.84,T*06
$GPTHS,359.84,A*04
$GPHDT,359.81,T*03
$GPTHS,359.81,A*01
$GPHDT,359.78,T*05
$GPTHS,359.78,A*07
$GPROT,-14.02,A*1B
$GPHDT,359.74,T*09
$GPTHS,359.74,A*0B
$GPHDT,359.69,T*05
$GPTHS,359.69,A*07
$GPVTG,000.6,T,000.6,M,004.3,N,007.9,K,A*2A
$GPZDA,135157.11,30,01,2020,13,51*66
$WIMWV,358.8,R,002.2,M,A*26
$SDDPT,200.0,000.0*55
$GPGGA,135157.11,6024.533365,N,00516.368080,E,2,08,1.7,31.0,M,10.0,M,10.0,1021*49
$GPHDT,359.62,T*0E
$GPTHS,359.62,A*0C
$GPHDT,359.54,T*0B
$GPTHS,359.54,A*09
$GPHDT,359.48,T*06
$GPTHS,359.48,A*04
$GPROT,-47.23,A*1E
$GPHDT,359.37,T*0E
$GPTHS,359.37,A*0C
$GPHDT,359.24,T*0C
$GPTHS,359.24,A*0E
$GPHDT,359.08,T*02
$GPTHS,359.08,A*00
$GPHDT,358.90,T*02
$GPTHS,358.90,A*00
$GPHDT,358.69,T*04
$GPTHS,358.69,A*06
$GPROT,-108.05,A*20
$GPHDT,358.45,T*0A
$GPTHS,358.45,A*08
$GPHDT,358.18,T*02
$GPTHS,358.18,A*00
$GPVTG,000.3,T,000.3,M,006.3,N,011.6,K,A*20
$GPZDA,135158.64,30,01,2020,13,51*6B
$WIMWV,001.7,R,003.2,M,A*27
$SDDPT,200.0,000.0*55
$GPHDT,357.90,T*0D
$GPTHS,357.90,A*0F
$GPHDT,357.58,T*09
$GPTHS,357.58,A*0B
$GPHDT,357.36,T*01
$GPTHS,357.36,A*03
$GPROT,-182.00,A*27
$GPHDT,357.00,T*04
$GPTHS,357.00,A*06
$GPHDT,356.63,T*00
$GPTHS,356.63,A*02
$GPHDT,356.23,T*04
$GPTHS,356.23,A*06
$GPHDT,355.81,T*0F
$GPTHS,355.81,A*0D
$GPHDT,355.37,T*02
$GPTHS,355.37,A*00
$GPROT,-246.71,A*2A
$GPHDT,354.91,T*0F
$GPTHS,354.91,A*0D
$GPVTG,358.1,T,358.1,M,008.4,N,015.6,K,A*2D
$GPZDA,135159.16,30,01,2020,13,51*6F
$WIMWV,005.2,R,004.3,M,A*20
$SDDPT,200.0,000.0*55
$GPHDT,354.43,T*00
$GPTHS,354.43,A*02
$GPGGA,135159.05,6024.536775,N,00516.368064,E,2,08,1.7,31.0,M,10.0,M,10.0,1021*48
$GPHDT,353.93,T*0A
$GPTHS,353.93,A*08
$GPHDT,353.41,T*05
$GPTHS,353.41,A*07
$GPHDT,353.05,T*05
$GPTHS,353.05,A*07
$GPROT,-303.91,A*24
$GPHDT,352.50,T*04
$GPTHS,352.50,A*06
$GPHDT,351.92,T*09
$GPTHS,351.92,A*0B
$GPHDT,351.34,T*05
$GPTHS,351.34,A*07
$GPHDT,350.73,T*07
$GPTHS,350.73,A*05
$GPHDT,350.11,T*03
$GPTHS,350.11,A*01
$GPROT,-355.37,A*2B
$GPHDT,349.48,T*07
$GPTHS,349.48,A*05
$GPVTG,354.6,T,354.6,M,010.3,N,019.0,K,A*29
$GPZDA,135159.96,30,01,2020,13,51*67
$WIMWV,005.5,R,005.2,M,A*27
$SDDPT,200.0,000.0*55
$GPHDT,348.83,T*01
$GPTHS,348.83,A*03
$GPHDT,348.17,T*0C
$GPTHS,348.17,A*0E
$GPHDT,347.49,T*08
$GPTHS,347.49,A*0A
$GPHDT,347.04,T*01
$GPTHS,347.04,A*03
$GPROT,-394.69,A*2D
$GPHDT,346.34,T*03
$GPTHS,346.34,A*01
$GPHDT,345.64,T*05
$GPTHS,345.64,A*07
$GPHDT,344.93,T*0C
$GPTHS,344.93,A*0E
$GPHDT,344.21,T*05
$GPTHS,344.21,A*07
$GPHDT,343.48,T*0D
$GPTHS,343.48,A*0F
$GPROT,-424.19,A*26
$GPHDT,342.74,T*03
$GPTHS,342.74,A*01
$GPVTG,349.1,T,349.1,M,011.6,N,021.5,K,A*23
$GPZDA,135200.92,30,01,2020,13,52*6F
$WIMWV,007.3,R,005.9,M,A*28
$SDDPT,200.0,000.0*55
$GPGGA,135200.98,6024.542204,N,00516.366927,E,2,08,1.7,31.0,M,10.0,M,10.0,1021*43
$GPHDT,341.99,T*03
$GPTHS,341.99,A*01
$GPHDT,341.22,T*03
$GPTHS,341.22,A*01
$GPHDT,340.45,T*03
$GPTHS,340.45,A*01
$GPHDT,339.92,T*07
$GPTHS,339.92,A*05
$GPROT,-457.16,A*2D
$GPHDT,339.11,T*0C
$GPTHS,339.11,A*0E
$GPHDT,338.29,T*06
$GPTHS,338.29,A*04
$GPHDT,337.44,T*02
$GPTHS,337.44,A*00
$GPHDT,336.56,T*00
$GPTHS,336.56,A*02
$GPHDT,335.67,T*01
$GPTHS,335.67,A*03
$GPVTG,342.4,T,342.4,M,012.7,N,023.5,K,A*23
$GPZDA,135201.87,30,01,2020,13,52*6A
$WIMWV,009.5,R,006.4,M,A*2E
$SDDPT,200.0,000.0*55
$GPROT,-514.79,A*22
$GPHDT,334.74,T*02
$GPTHS,334.74,A*00
$GPHDT,333.78,T*09
$GPTHS,333.78,A*0B
$GPHDT,332.79,T*09
$GPTHS,332.79,A*0B
$GPHDT,331.78,T*0B
$GPTHS,331.78,A*09
$GPHDT,331.08,T*0C
$GPTHS,331.08,A*0E
$GPROT,-595.25,A*22
$GPHDT,330.01,T*04
$GPTHS,330.01,A*06
$GPHDT,328.91,T*04
$GPTHS,328.91,A*06
$GPHDT,327.78,T*0C
$GPTHS,327.78,A*0E
$GPHDT,326.61,T*05
$GPTHS,326.61,A*07
$GPHDT,325.41,T*04
$GPTHS,325.41,A*06
$GPVTG,333.6,T,333.6,M,013.5,N,024.9,K,A*2B
$GPZDA,135202.82,30,01,2020,13,52*6C
$WIMWV,013.8,R,006.8,M,A*24
$SDDPT,200.0,000.0*55
$GPROT,-686.74,A*27
$GPHDT,324.18,T*09
$GPTHS,324.18,A*0B
$GPGGA,135202.92,6024.548630,N,00516.363097,E,2,08,1.7,31.0,M,10.0,M,10.0,1021*45
$GPHDT,322.92,T*0D
$GPTHS,322.92,A*0F
$GPHDT,321.64,T*07
$GPTHS,321.64,A*05
$GPHDT,320.33,T*04
$GPTHS,320.33,A*06
$GPHDT,319.46,T*0C
$GPTHS,319.46,A*0E
$GPROT,-763.38,A*25
$GPHDT,318.12,T*0C
$GPTHS,318.12,A*0E
$GPHDT,316.77,T*01
$GPTHS,316.77,A*03
$GPHDT,315.41,T*07
$GPTHS,315.41,A*05
$GPHDT,314.04,T*07
$GPTHS,314.04,A*05
$GPHDT,312.67,T*04
$GPTHS,312.67,A*06
$GPVTG,322.8,T,322.8,M,013.9,N,025.7,K,A*28
$GPZDA,135203.77,30,01,2020,13,52*67
$WIMWV,017.3,R,007.1,M,A*23
$SDDPT,200.0,000.0*55
$GPROT,-804.70,A*27
$GPHDT,311.28,T*0C
$GPTHS,311.28,A*0E
$GPHDT,309.89,T*0E
$GPTHS,309.89,A*0C
$GPHDT,308.50,T*0B
$GPTHS,308.50,A*09
$GPHDT,307.10,T*00
$GPTHS,307.10,A*02
$GPHDT,306.17,T*06
$GPTHS,306.17,A*04
$GPROT,-820.58,A*2B
$GPHDT,304.77,T*02
$GPTHS,304.77,A*00
$GPHDT,303.39,T*0F
$GPTHS,303.39,A*0D
$GPHDT,302.04,T*00
$GPTHS,302.04,A*02
$GPHDT,300.72,T*03
$GPTHS,300.72,A*01
$GPVTG,310.4,T,310.4,M,014.1,N,026.2,K,A*21
$GPZDA,135204.72,30,01,2020,13,52*65
$WIMWV,018.8,R,007.3,M,A*25
$SDDPT,200.0,000.0*55
$GPHDT,299.44,T*07
$GPTHS,299.44,A*05
$GPROT,-770.93,A*26
$GPHDT,298.22,T*06
$GPTHS,298.22,A*04
$GPGGA,135204.86,6024.554864,N,00516.355086,E,2,08,1.7,31.0,M,10.0,M,10.0,1021*41
$GPHDT,297.06,T*0F
$GPTHS,297.06,A*0D
$GPHDT,295.97,T*05
$GPTHS,295.97,A*07
$GPHDT,294.98,T*0B
$GPTHS,294.98,A*09
$GPHDT,294.37,T*0E
$GPTHS,294.37,A*0C
$GPROT,-590.34,A*27
$GPHDT,293.53,T*0B
$GPTHS,293.53,A*09
$GPHDT,292.79,T*02
$GPTHS,292.79,A*00
$GPHDT,292.14,T*09
$GPTHS,292.14,A*0B
$GPHDT,291.57,T*0D
$GPTHS,291.57,A*0F
$GPVTG,300.3,T,300.3,M,014.8,N,027.4,K,A*2F
$GPZDA,135205.68,30,01,2020,13,52*6F
$WIMWV,009.2,R,007.5,M,A*29
$SDDPT,200.0,000.0*55
$GPHDT,291.08,T*07
$GPTHS,291.08,A*05
$GPROT,-339.60,A*23
$GPHDT,290.65,T*0D
$GPTHS,290.65,A*0F
$GPHDT,290.26,T*0A
$GPTHS,290.26,A*08
$GPHDT,289.91,T*0E
$GPTHS,289.91,A*0C
$GPHDT,289.57,T*04
$GPTHS,289.57,A*06
$GPHDT,289.35,T*00
$GPTHS,289.35,A*02
$GPROT,-204.03,A*29
$GPHDT,289.03,T*05
$GPTHS,289.03,A*07
$GPHDT,288.72,T*02
$GPTHS,288.72,A*00
$GPHDT,288.42,T*01
$GPTHS,288.42,A*03
$GPHDT,288.13,T*05
$GPTHS,288.13,A*07
$GPVTG,293.7,T,293.7,M,015.8,N,029.3,K,A*27
$GPZDA,135206.63,30,01,2020,13,52*67
$WIMWV,004.1,R,008.0,M,A*2D
$SDDPT,200.0,000.0*55
$GPHDT,287.84,T*04
$GPTHS,287.84,A*06
$GPROT,-172.43,A*2F
$GPGGA,135206.80,6024.558814,N,00516.341203,E,2,08,1.7,31.0,M,10.0,M,10.0,1021*44
$GPHDT,287.56,T*0B
$GPTHS,287.56,A*09
$GPHDT,287.29,T*03
$GPTHS,287.29,A*01
$GPHDT,287.03,T*0B
$GPTHS,287.03,A*09
$GPHDT,286.78,T*06
$GPTHS,286.78,A*04
$GPHDT,286.61,T*0E
$GPTHS,286.61,A*0C
$GPROT,-150.87,A*27
$GPHDT,286.37,T*0D
$GPTHS,286.37,A*0F
$GPHDT,286.13,T*0B
$GPTHS,286.13,A*09
$GPHDT,285.90,T*03
$GPTHS,285.90,A*01
$GPVTG,288.5,T,288.5,M,016.9,N,031.3,K,A*2C
$GPZDA,135207.58,30,01,2020,13,52*6E
$WIMWV,007.3,R,008.7,M,A*2B
$SDDPT,200.0,000.0*55
$GPHDT,285.68,T*04
$GPTHS,285.68,A*06
$GPHDT,285.47,T*09
$GPTHS,285.47,A*0B
$GPROT,-130.16,A*29
$GPHDT,285.26,T*0E
$GPTHS,285.26,A*0C
$GPHDT,285.06,T*0C
$GPTHS,285.06,A*0E
$GPHDT,284.87,T*04
$GPTHS,284.87,A*06
$GPHDT,284.68,T*05
$GPTHS,284.68,A*07
$GPHDT,284.56,T*08
$GPTHS,284.56,A*0A
$GPROT,-111.44,A*2D
$GPHDT,284.38,T*00
$GPTHS,284.38,A*02
$GPHDT,284.20,T*09
$GPTHS,284.20,A*0B
$GPHDT,284.04,T*0F
$GPTHS,284.04,A*0D
$GPVTG,286.2,T,286.2,M,017.9,N,033.1,K,A*2D
$GPZDA,135208.53,30,01,2020,13,52*6A
$WIMWV,004.0,R,009.2,M,A*2F
$SDDPT,200.0,000.0*55
$GPHDT,283.87,T*03
$GPTHS,283.87,A*01
$GPHDT,283.71,T*0A
$GPTHS,283.71,A*08
$GPGGA,135208.74,6024.562131,N,00516.324039,E,2,08,1.7,31.0,M,10.0,M,10.0,1021*4E
$GPROT,-96.32,A*12
$GPHDT,283.56,T*0F
$GPTHS,283.56,A*0D
$GPHDT,283.40,T*08
$GPTHS,283.40,A*0A
$GPHDT,283.24,T*0A
$GPTHS,283.24,A*08
$GPHDT,283.08,T*04
$GPTHS,283.08,A*06
$GPHDT,282.97,T*03
$GPTHS,282.97,A*01
$GPROT,-94.61,A*16
$GPHDT,282.81,T*04
$GPTHS,282.81,A*06
$GPHDT,282.64,T*0F
$GPTHS,282.64,A*0D
$GPHDT,282.48,T*01
$GPTHS,282.48,A*03
$GPVTG,284.2,T,284.2,M,018.8,N,034.8,K,A*2D
$GPZDA,135209.48,30,01,2020,13,52*61
$WIMWV,002.4,R,009.6,M,A*29
$SDDPT,200.0,000.0*55
$GPHDT,282.31,T*0F
$GPTHS,282.31,A*0D
$GPHDT,282.15,T*09
$GPTHS,282.15,A*0B
$GPROT,-96.93,A*19
$GPHDT,281.98,T*0F
$GPTHS,281.98,A*0D
$GPHDT,281.82,T*04
$GPTHS,281.82,A*06
$GPHDT,281.65,T*0D
$GPTHS,281.65,A*0F
$GPHDT,281.49,T*03
$GPTHS,281.49,A*01
$GPHDT,281.37,T*0A
$GPTHS,281.37,A*08
$GPROT,-97.64,A*10
$GPHDT,281.21,T*0D
$GPTHS,281.21,A*0F
$GPHDT,281.04,T*0A
$GPTHS,281.04,A*08
$GPVTG,282.3,T,282.3,M,019.6,N,036.4,K,A*2C
$GPZDA,135210.44,30,01,2020,13,52*65
$WIMWV,002.5,R,010.1,M,A*27
$SDDPT,200.0,000.0*55
$GPHDT,280.88,T*0F
$GPTHS,280.88,A*0D
$GPHDT,280.73,T*0B
$GPTHS,280.73,A*09
$GPHDT,280.58,T*02
$GPTHS,280.58,A*00
$GPGGA,135210.67,6024.564682,N,00516.304182,E,2,08,1.7,31.0,M,10.0,M,10.0,1021*4F
$GPROT,-90.26,A*11
$GPHDT,280.44,T*0F
$GPTHS,280.44,A*0D
$GPHDT,280.31,T*0D
$GPTHS,280.31,A*0F
$GPHDT,280.17,T*09
$GPTHS,280.17,A*0B
$GPHDT,280.05,T*0A
$GPTHS,280.05,A*08
$GPHDT,279.97,T*07
$GPTHS,279.97,A*05
$GPROT,-75.11,A*1E
$GPHDT,279.85,T*04
$GPTHS,279.85,A*06
$GPHDT,279.73,T*0D
$GPTHS,279.73,A*0F
$GPVTG,280.8,T,280.8,M,020.5,N,038.0,K,A*2F
$GPZDA,135211.39,30,01,2020,13,52*6E
$WIMWV,001.9,R,010.5,M,A*2C
$SDDPT,200.0,000.0*55
$GPHDT,279.62,T*0D
$GPTHS,279.62,A*0F
$GPHDT,279.50,T*0C
$GPTHS,279.50,A*0E
$GPHDT,279.40,T*0D
$GPTHS,279.40,A*0F
$GPROT,-65.32,A*1E
$GPHDT,279.29,T*02
$GPTHS,279.29,A*00
$GPHDT,279.19,T*01
$GPTHS,279.19,A*03
$GPHDT,279.09,T*00
$GPTHS,279.09,A*02
$GPHDT,278.98,T*09
$GPTHS,278.98,A*0B
$GPHDT,278.92,T*03
$GPTHS,278.92,A*01
$GPROT,-59.08,A*18
$GPHDT,278.82,T*02
$GPTHS,278.82,A*00
$GPHDT,278.73,T*0C
$GPTHS,278.73,A*0E
$GPVTG,279.6,T,279.6,M,021.3,N,039.4,K,A*2D
$GPZDA,135212.34,30,01,2020,13,52*60
$WIMWV,001.4,R,010.9,M,A*2D
$SDDPT,200.0,000.0*55
$GPHDT,278.63,T*0D
$GPTHS,278.63,A*0F
$GPHDT,278.54,T*09
$GPTHS,278.54,A*0B
$GPGGA,135212.61,6024.566830,N,00516.282184,E,2,08,1.7,31.0,M,10.0,M,10.0,1021*47
$GPHDT,278.45,T*09
$GPTHS,278.45,A*0B
$GPROT,-54.94,A*10
$GPHDT,278.35,T*0E
$GPTHS,278.35,A*0C
$GPHDT,278.26,T*0C
$GPTHS,278.26,A*0E
$GPHDT,278.18,T*01
$GPTHS,278.18,A*03
$GPHDT,278.09,T*01
$GPTHS,278.09,A*03
$GPHDT,278.03,T*0B
$GPTHS,278.03,A*09
$GPROT,-51.93,A*12
$GPHDT,277.94,T*0A
$GPTHS,277.94,A*08
$GPVTG,278.6,T,278.6,M,022.0,N,040.8,K,A*2F
$GPZDA,135213.29,30,01,2020,13,52*6D
$WIMWV,001.2,R,011.3,M,A*20
$SDDPT,200.0,000.0*55
$GPHDT,277.86,T*09
$GPTHS,277.86,A*0B
$GPHDT,277.77,T*07
$GPTHS,277.77,A*05
$GPHDT,277.69,T*08
$GPTHS,277.69,A*0A
$GPHDT,277.60,T*01
$GPTHS,277.60,A*03
$GPROT,-49.54,A*10
$GPHDT,277.52,T*00
$GPTHS,277.52,A*02
$GPHDT,277.44,T*07
$GPTHS,277.44,A*05
$GPHDT,277.36,T*02
$GPTHS,277.36,A*00
$GPHDT,277.28,T*0D
$GPTHS,277.28,A*0F
$GPHDT,277.22,T*07
$GPTHS,277.22,A*05
$GPROT,-47.88,A*1F
$GPHDT,277.14,T*02
$GPTHS,277.14,A*00
$GPVTG,277.8,T,277.8,M,022.7,N,042.1,K,A*23
$GPZDA,135214.24,30,01,2020,13,52*67
$WIMWV,000.9,R,011.7,M,A*2E
$SDDPT,200.0,000.0*55
$GPHDT,277.06,T*01
$GPTHS,277.06,A*03
$GPHDT,276.98,T*07
$GPTHS,276.98,A*05
$GPHDT,276.90,T*0F
$GPTHS,276.90,A*0D
$GPGGA,135214.55,6024.568634,N,00516.258357,E,2,08,1.7,31.0,M,10.0,M,10.0,1021*49
$GPHDT,276.82,T*0C
$GPTHS,276.82,A*0E
$GPROT,-46.51,A*1A
$GPHDT,276.75,T*04
$GPTHS,276.75,A*06
$GPHDT,276.67,T*07
$GPTHS,276.67,A*05
$GPHDT,276.59,T*0A
$GPTHS,276.59,A*08
$GPHDT,276.51,T*02
$GPTHS,276.51,A*00
$GPHDT,276.45,T*07
$GPTHS,276.45,A*05
$GPROT,-48.39,A*1A
$GPHDT,276.36,T*03
$GPTHS,276.36,A*01
$GPVTG,277.0,T,277.0,M,023.4,N,043.4,K,A*25
$GPZDA,135215.20,30,01,2020,13,52*62
$WIMWV,000.7,R,012.0,M,A*24
$SDDPT,200.0,000.0*55
$GPHDT,276.27,T*03
$GPTHS,276.27,A*01
$GPHDT,276.19,T*0E
$GPTHS,276.19,A*0C
$GPHDT,276.11,T*06
$GPTHS,276.11,A*04
$GPHDT,276.04,T*02
$GPTHS,276.04,A*00
$GPROT,-45.03,A*1E
$GPHDT,275.98,T*04
$GPTHS,275.98,A*06
$GPHDT,275.93,T*0F
$GPTHS,275.93,A*0D
$GPHDT,275.88,T*05
$GPTHS,275.88,A*07
$GPHDT,275.84,T*09
$GPTHS,275.84,A*0B
$GPHDT,275.82,T*0F
$GPTHS,275.82,A*0D
$GPVTG,276.1,T,276.1,M,024.0,N,044.5,K,A*20
$GPZDA,135216.15,30,01,2020,13,52*67
$WIMWV,001.2,R,012.3,M,A*23
$SDDPT,200.0,000.0*55
$GPROT,-24.41,A*1F
$GPHDT,275.79,T*0B
$GPTHS,275.79,A*09
$GPHDT,275.76,T*04
$GPTHS,275.76,A*06
$GPHDT,275.74,T*06
$GPTHS,275.74,A*04
$GPHDT,275.72,T*00
$GPTHS,275.72,A*02
$GPGGA,135216.49,6024.570208,N,00516.232960,E,2,08,1.7,31.0,M,10.0,M,10.0,1021*46
$GPHDT,275.71,T*03
$GPTHS,275.71,A*01
$GPROT,-10.72,A*18
$GPHDT,275.69,T*0A
$GPTHS,275.69,A*08
$GPHDT,275.69,T*0A
$GPTHS,275.69,A*08
$GPHDT,275.68,T*0B
$GPTHS,275.68,A*09
$GPHDT,275.68,T*0B
$GPTHS,275.68,A*09
$GPHDT,275.67,T*04
$GPTHS,275.67,A*06
$GPVTG,275.9,T,275.9,M,024.6,N,045.6,K,A*24
$GPZDA,135217.10,30,01,2020,13,52*63
$WIMWV,000.3,R,012.7,M,A*27
$SDDPT,200.0,000.0*55
$GPROT,-2.67,A*2F
$GPHDT,275.67,T*04
$GPTHS,275.67,A*06
$GPHDT,275.67,T*04
$GPTHS,275.67,A*06
$GPHDT,275.68,T*0B
$GPTHS,275.68,A*09
$GPHDT,275.68,T*0B
$GPTHS,275.68,A*09
$GPHDT,275.68,T*0B
$GPTHS,275.68,A*09
$GPROT,1.69,A*0F
$GPHDT,275.69,T*0A
$GPTHS,275.69,A*08
$GPHDT,275.69,T*0A
$GPTHS,275.69,A*08
$GPHDT,275.70,T*02
$GPTHS,275.70,A*00
$GPHDT,275.71,T*03
$GPTHS,275.71,A*01
$GPHDT,275.71,T*03
$GPTHS,275.71,A*01
$GPVTG,275.8,T,275.8,M,025.2,N,046.6,K,A*22
$GPZDA,135218.56,30,01,2020,13,52*6E
$WIMWV,000.2,R,012.9,M,A*28
$SDDPT,200.0,000.0*55
$GPROT,4.48,A*09
$GPHDT,275.72,T*00
$GPTHS,275.72,A*02
$GPHDT,275.73,T*01
$GPTHS,275.73,A*03
$GPHDT,275.74,T*06
$GPTHS,275.74,A*04
$GPGGA,135218.43,6024.571599,N,00516.206173,E,2,08,1.7,31.0,M,10.0,M,10.0,1021*41
$GPHDT,275.75,T*07
$GPTHS,275.75,A*05
$GPHDT,275.76,T*04
$GPTHS,275.76,A*06
$GPROT,6.20,A*05
$GPHDT,275.78,T*0A
$GPTHS,275.78,A*08
$GPHDT,275.79,T*0B
$GPTHS,275.79,A*09
$GPHDT,275.80,T*0D
$GPTHS,275.80,A*0F
$GPHDT,275.81,T*0C
$GPTHS,275.81,A*0E
$GPVTG,275.8,T,275.8,M,025.7,N,047.6,K,A*26
$GPZDA,135219.08,30,01,2020,13,52*64
$WIMWV,360.0,R,013.2,M,A*25
$SDDPT,200.0,000.0*55
$GPHDT,275.82,T*0F
$GPTHS,275.82,A*0D
$GPROT,7.15,A*02
$GPHDT,275.83,T*0E
$GPTHS,275.83,A*0C
$GPHDT,275.85,T*08
$GPTHS,275.85,A*0A
$GPHDT,275.86,T*0B
$GPTHS,275.86,A*09
$GPHDT,275.87,T*0A
$GPTHS,275.87,A*08
$GPHDT,275.88,T*05
$GPTHS,275.88,A*07
$GPROT,7.48,A*0A
$GPHDT,275.90,T*0C
$GPTHS,275.90,A*0E
$GPHDT,275.91,T*0D
$GPTHS,275.91,A*0F
$GPHDT,275.92,T*0E
$GPTHS,275.92,A*0C
$GPHDT,275.94,T*08
$GPTHS,275.94,A*0A
$GPVTG,275.9,T,275.9,M,026.2,N,048.6,K,A*2F
$GPZDA,135219.99,30,01,2020,13,52*6C
$WIMWV,359.9,R,013.5,M,A*21
$SDDPT,200.0,000.0*55
$GPHDT,275.94,T*08
$GPTHS,275.94,A*0A
$GPROT,7.66,A*06
$GPHDT,275.96,T*0A
$GPTHS,275.96,A*08
$GPHDT,275.97,T*0B
$GPTHS,275.97,A*09
$GPHDT,275.98,T*04
$GPTHS,275.98,A*06
$GPGGA,135220.36,6024.573013,N,00516.178190,E,2,08,1.7,31.0,M,10.0,M,10.0,1021*4A
$GPHDT,276.00,T*06
$GPTHS,276.00,A*04
$GPHDT,276.01,T*07
$GPTHS,276.01,A*05
$GPROT,7.66,A*06
$GPHDT,276.02,T*04
$GPTHS,276.02,A*06
$GPHDT,276.04,T*02
$GPTHS,276.04,A*00
$GPHDT,276.05,T*03
$GPTHS,276.05,A*01
$GPHDT,276.06,T*00
$GPTHS,276.06,A*02
$GPVTG,276.0,T,276.0,M,026.7,N,049.4,K,A*29
$GPZDA,135220.94,30,01,2020,13,52*6B
$WIMWV,359.9,R,013.7,M,A*23
$SDDPT,200.0,000.0*55
$GPHDT,276.07,T*01
$GPTHS,276.07,A*03
$GPROT,7.73,A*02
$GPHDT,276.08,T*0E
$GPTHS,276.08,A*0C
$GPHDT,276.10,T*07
$GPTHS,276.10,A*05
$GPHDT,276.11,T*06
$GPTHS,276.11,A*04
$GPHDT,276.12,T*05
$GPTHS,276.12,A*07
$GPHDT,276.14,T*03
$GPTHS,276.14,A*01
$GPROT,7.95,A*0A
$GPHDT,276.15,T*02
$GPTHS,276.15,A*00
$GPHDT,276.17,T*00
$GPTHS,276.17,A*02
$GPHDT,276.21,T*05
$GPTHS,276.21,A*07
$GPVTG,276.0,T,276.0,M,027.2,N,050.3,K,A*22
$GPZDA,135221.89,30,01,2020,13,52*66
$WIMWV,000.3,R,014.0,M,A*26
$SDDPT,200.0,000.0*55
$GPHDT,276.26,T*02
$GPTHS,276.26,A*00
$GPHDT,276.31,T*04
$GPTHS,276.31,A*06
$GPROT,32.43,A*37
$GPHDT,276.41,T*03
$GPTHS,276.41,A*01
$GPHDT,276.55,T*06
$GPTHS,276.55,A*04
$GPHDT,276.75,T*04
$GPTHS,276.75,A*06
$GPGGA,135222.30,6024.574586,N,00516.149184,E,2,08,1.7,31.0,M,10.0,M,10.0,1021*47
$GPHDT,277.01,T*06
$GPTHS,277.01,A*04
$GPHDT,277.34,T*00
$GPTHS,277.34,A*02
$GPROT,157.53,A*04
$GPHDT,277.75,T*05
$GPTHS,277.75,A*07
$GPHDT,278.23,T*09
$GPTHS,278.23,A*0B
$GPHDT,278.81,T*01
$GPTHS,278.81,A*03
$GPVTG,276.6,T,276.6,M,027.5,N,050.9,K,A*2F
$GPZDA,135222.85,30,01,2020,13,52*69
$WIMWV,360.0,R,014.1,M,A*21
$SDDPT,200.0,000.0*55
$GPHDT,279.47,T*0A
$GPTHS,279.47,A*08
$GPHDT,279.96,T*06
$GPTHS,279.96,A*04
$GPROT,380.39,A*00
$GPHDT,280.77,T*0F
$GPTHS,280.77,A*0D
$GPHDT,281.66,T*0E
$GPTHS,281.66,A*0C
$GPHDT,282.64,T*0F
$GPTHS,282.64,A*0D
$GPHDT,283.70,T*0B
$GPTHS,283.70,A*09
$GPHDT,284.82,T*01
$GPTHS,284.82,A*03
$GPROT,614.68,A*0C
$GPHDT,285.99,T*0A
$GPTHS,285.99,A*08
$GPHDT,287.20,T*0A
$GPTHS,287.20,A*08
$GPHDT,288.45,T*06
$GPTHS,288.45,A*04
$GPVTG,282.2,T,282.2,M,027.1,N,050.1,K,A*23
$GPZDA,135223.80,30,01,2020,13,52*6D
$WIMWV,354.9,R,013.5,M,A*2C
$SDDPT,200.0,000.0*55
$GPHDT,289.74,T*05
$GPTHS,289.74,A*07
$GPHDT,290.61,T*09
$GPTHS,290.61,A*0B
$GPROT,750.31,A*01
$GPHDT,291.94,T*02
$GPTHS,291.94,A*00
$GPHDT,293.31,T*0F
$GPTHS,293.31,A*0D
$GPGGA,135224.24,6024.577420,N,00516.120658,E,2,08,1.7,31.0,M,10.0,M,10.0,1021*43
$GPHDT,294.70,T*0D
$GPTHS,294.70,A*0F
$GPHDT,296.12,T*0B
$GPTHS,296.12,A*09
$GPHDT,297.57,T*0B
$GPTHS,297.57,A*09
$GPROT,836.11,A*0C
$GPHDT,299.05,T*02
$GPTHS,299.05,A*00
$GPHDT,300.56,T*05
$GPTHS,300.56,A*07
$GPVTG,293.3,T,293.3,M,026.0,N,048.1,K,A*2A
$GPZDA,135224.75,30,01,2020,13,52*60
$WIMWV,344.7,R,013.1,M,A*27
$SDDPT,200.0,000.0*55
$GPHDT,302.09,T*0D
$GPTHS,302.09,A*0F
$GPHDT,303.66,T*05
$GPTHS,303.66,A*07
$GPHDT,304.71,T*04
$GPTHS,304.71,A*06
$GPROT,917.43,A*09
$GPHDT,306.33,T*00
$GPTHS,306.33,A*02
$GPHDT,307.97,T*0F
$GPTHS,307.97,A*0D
$GPHDT,309.64,T*0D
$GPTHS,309.64,A*0F
$GPHDT,311.35,T*00
$GPTHS,311.35,A*02
$GPHDT,313.08,T*0C
$GPTHS,313.08,A*0E
$GPROT,1002.41,A*37
$GPHDT,314.85,T*0E
$GPTHS,314.85,A*0C
$GPHDT,316.65,T*02
$GPTHS,316.65,A*00
$GPVTG,306.4,T,306.4,M,024.3,N,045.0,K,A*27
$GPZDA,135225.70,30,01,2020,13,52*64
$WIMWV,341.2,R,012.4,M,A*23
$SDDPT,200.0,000.0*55
$GPHDT,318.47,T*0C
$GPTHS,318.47,A*0E
$GPHDT,320.33,T*04
$GPTHS,320.33,A*06
$GPHDT,321.57,T*07
$GPTHS,321.57,A*05
$GPROT,1084.55,A*3C
$GPHDT,323.45,T*06
$GPTHS,323.45,A*04
$GPHDT,325.34,T*06
$GPTHS,325.34,A*04
$GPGGA,135226.18,6024.582573,N,00516.096110,E,2,08,1.7,31.0,M,10.0,M,10.0,1021*44
$GPHDT,327.24,T*05
$GPTHS,327.24,A*07
$GPHDT,329.13,T*0F
$GPTHS,329.13,A*0D
$GPHDT,331.01,T*05
$GPTHS,331.01,A*07
$GPROT,1108.37,A*3D
$GPHDT,332.87,T*08
$GPTHS,332.87,A*0A
$GPHDT,334.72,T*04
$GPTHS,334.72,A*06
$GPVTG,322.6,T,322.6,M,022.2,N,041.1,K,A*25
$GPZDA,135226.65,30,01,2020,13,52*63
$WIMWV,340.1,R,011.4,M,A*22
$SDDPT,200.0,000.0*55
$GPHDT,336.56,T*00
$GPTHS,336.56,A*02
$GPHDT,338.37,T*09
$GPTHS,338.37,A*0B
$GPHDT,339.56,T*0F
$GPTHS,339.56,A*0D
$GPROT,1066.28,A*3A
$GPHDT,341.33,T*03
$GPTHS,341.33,A*01
$GPHDT,343.09,T*08
$GPTHS,343.09,A*0A
$GPHDT,344.82,T*0C
$GPTHS,344.82,A*0E
$GPHDT,346.54,T*05
$GPTHS,346.54,A*07
$GPHDT,348.25,T*0D
$GPTHS,348.25,A*0F
$GPROT,1013.87,A*3D
$GPHDT,349.95,T*07
$GPTHS,349.95,A*05
$GPVTG,338.4,T,338.4,M,020.5,N,037.9,K,A*29
$GPZDA,135227.61,30,01,2020,13,52*66
$WIMWV,342.6,R,010.5,M,A*27
$SDDPT,200.0,000.0*55
$GPHDT,351.64,T*00
$GPTHS,351.64,A*02
$GPHDT,353.33,T*00
$GPTHS,353.33,A*02
$GPHDT,355.01,T*07
$GPTHS,355.01,A*05
$GPHDT,356.13,T*07
$GPTHS,356.13,A*05
$GPROT,990.52,A*06
$GPHDT,357.81,T*0D
$GPTHS,357.81,A*0F
$GPHDT,359.49,T*07
$GPTHS,359.49,A*05
$GPGGA,135228.12,6024.591718,N,00516.083024,E,2,08,1.7,31.0,M,10.0,M,10.0,1021*4F
$GPHDT,001.17,T*02
$GPTHS,001.17,A*00
$GPHDT,002.86,T*09
$GPTHS,002.86,A*0B
$GPHDT,004.56,T*02
$GPTHS,004.56,A*00
$GPROT,993.51,A*06
$GPHDT,006.25,T*04
$GPTHS,006.25,A*06
$GPVTG,354.4,T,354.4,M,019.1,N,035.4,K,A*28
$GPZDA,135228.56,30,01,2020,13,52*6D
$WIMWV,341.8,R,009.8,M,A*2F
$SDDPT,200.0,000.0*55
$GPHDT,007.95,T*0E
$GPTHS,007.95,A*0C
$GPHDT,009.65,T*0F
$GPTHS,009.65,A*0D
$GPHDT,011.34,T*02
$GPTHS,011.34,A*00
$GPHDT,012.46,T*04
$GPTHS,012.46,A*06
$GPROT,990.66,A*01
$GPHDT,014.11,T*00
$GPTHS,014.11,A*02
$GPHDT,015.73,T*05
$GPTHS,015.73,A*07
$GPHDT,017.31,T*01
$GPTHS,017.31,A*03
$GPHDT,018.84,T*00
$GPTHS,018.84,A*02
$GPHDT,020.31,T*05
$GPTHS,020.31,A*07
$GPROT,894.22,A*04
$GPHDT,021.71,T*00
$GPTHS,021.71,A*02
$GPVTG,010.2,T,010.2,M,018.2,N,033.6,K,A*2E
$GPZDA,135229.51,30,01,2020,13,52*6B
$WIMWV,342.0,R,009.3,M,A*2F
$SDDPT,200.0,000.0*55
$GPHDT,023.05,T*01
$GPTHS,023.05,A*03
$GPHDT,024.32,T*02
$GPTHS,024.32,A*00
$GPHDT,025.51,T*06
$GPTHS,025.51,A*04
$GPHDT,026.27,T*04
$GPTHS,026.27,A*06
$GPROT,707.77,A*01
$GPHDT,027.33,T*00
$GPTHS,027.33,A*02
$GPGGA,135230.05,6024.601522,N,00516.082153,E,2,08,1.7,31.0,M,10.0,M,10.0,1021*41
$GPHDT,028.31,T*0D
$GPTHS,028.31,A*0F
$GPHDT,029.22,T*0E
$GPTHS,029.22,A*0C
$GPHDT,030.04,T*02
$GPTHS,030.04,A*00
$GPHDT,030.80,T*0E
$GPTHS,030.80,A*0C
$GPVTG,021.3,T,021.3,M,018.1,N,033.5,K,A*2E
$GPZDA,135230.46,30,01,2020,13,52*65
$WIMWV,350.7,R,009.2,M,A*2A
$SDDPT,200.0,000.0*55
$GPROT,488.70,A*02
$GPHDT,031.48,T*0B
$GPTHS,031.48,A*09
$GPHDT,032.11,T*04
$GPTHS,032.11,A*06
$GPHDT,032.69,T*0B
$GPTHS,032.69,A*09
$GPHDT,033.22,T*05
$GPTHS,033.22,A*07
$GPHDT,033.55,T*05
$GPTHS,033.55,A*07
$GPROT,320.09,A*09
$GPHDT,034.02,T*00
$GPTHS,034.02,A*02
$GPHDT,034.46,T*00
$GPTHS,034.46,A*02
$GPHDT,034.87,T*0D
$GPTHS,034.87,A*0F
$GPHDT,035.26,T*07
$GPTHS,035.26,A*05
$GPHDT,035.63,T*06
$GPTHS,035.63,A*04
$GPVTG,029.2,T,029.2,M,018.6,N,034.4,K,A*2F
$GPZDA,135231.41,30,01,2020,13,52*63
$WIMWV,355.4,R,009.4,M,A*2A
$SDDPT,200.0,000.0*55
$GPROT,230.73,A*04
$GPHDT,035.98,T*02
$GPTHS,035.98,A*00
$GPHDT,036.32,T*01
$GPTHS,036.32,A*03
$GPHDT,036.63,T*05
$GPTHS,036.63,A*07
$GPHDT,036.93,T*0A
$GPTHS,036.93,A*08
$GPHDT,037.12,T*02
$GPTHS,037.12,A*00
$GPROT,177.81,A*09
$GPHDT,037.39,T*0B
$GPTHS,037.39,A*09
$GPGGA,135231.99,6024.610182,N,00516.090965,E,2,08,1.7,31.0,M,10.0,M,10.0,1021*45
$GPHDT,037.65,T*02
$GPTHS,037.65,A*00
$GPHDT,037.89,T*00
$GPTHS,037.89,A*02
$GPHDT,038.11,T*0E
$GPTHS,038.11,A*0C
$GPHDT,038.32,T*0F
$GPTHS,038.32,A*0D
$GPVTG,035.4,T,035.4,M,019.3,N,035.8,K,A*26
$GPZDA,135232.37,30,01,2020,13,52*61
$WIMWV,351.7,R,009.9,M,A*20
$SDDPT,200.0,000.0*55
$GPROT,131.58,A*0F
$GPHDT,038.51,T*0A
$GPTHS,038.51,A*08
$GPHDT,038.70,T*09
$GPTHS,038.70,A*0B
$GPHDT,038.87,T*01
$GPTHS,038.87,A*03
$GPHDT,039.03,T*0C
$GPTHS,039.03,A*0E
$GPHDT,039.13,T*0D
$GPTHS,039.13,A*0F
$GPROT,96.20,A*3C
$GPHDT,039.28,T*05
$GPTHS,039.28,A*07
$GPHDT,039.41,T*0A
$GPTHS,039.41,A*08
$GPHDT,039.54,T*0E
$GPTHS,039.54,A*0C
$GPHDT,039.66,T*0F
$GPTHS,039.66,A*0D
$GPVTG,037.8,T,037.8,M,020.1,N,037.3,K,A*27
$GPZDA,135233.32,30,01,2020,13,52*65
$WIMWV,355.2,R,010.3,M,A*23
$SDDPT,200.0,000.0*55
$GPHDT,039.78,T*00
$GPTHS,039.78,A*02
$GPROT,71.38,A*3C
$GPHDT,039.88,T*0F
$GPTHS,039.88,A*0D
$GPHDT,039.98,T*0E
$GPTHS,039.98,A*0C
$GPHDT,040.08,T*09
$GPTHS,040.08,A*0B
$GPHDT,040.17,T*07
$GPTHS,040.17,A*05
$GPHDT,040.23,T*00
$GPTHS,040.23,A*02
$GPROT,53.95,A*3B
$GPHDT,040.31,T*03
$GPTHS,040.31,A*01
$GPGGA,135233.93,6024.619068,N,00516.102724,E,2,08,1.7,31.0,M,10.0,M,10.0,1021*40
$GPHDT,040.39,T*0B
$GPTHS,040.39,A*09
$GPHDT,040.46,T*03
$GPTHS,040.46,A*01
$GPHDT,040.53,T*07
$GPTHS,040.53,A*05
$GPVTG,039.3,T,039.3,M,020.9,N,038.8,K,A*2B
$GPZDA,135234.27,30,01,2020,13,52*66
$WIMWV,357.5,R,010.7,M,A*22
$SDDPT,200.0,000.0*55
$GPHDT,040.60,T*07
$GPTHS,040.60,A*05
$GPROT,41.86,A*3A
$GPHDT,040.67,T*00
$GPTHS,040.67,A*02
$GPHDT,040.73,T*05
$GPTHS,040.73,A*07
$GPHDT,040.79,T*0F
$GPTHS,040.79,A*0D
$GPHDT,040.84,T*0D
$GPTHS,040.84,A*0F
$GPHDT,040.88,T*01
$GPTHS,040.88,A*03
$GPROT,33.44,A*31
$GPHDT,040.93,T*0B
$GPTHS,040.93,A*09
$GPHDT,040.98,T*00
$GPTHS,040.98,A*02
$GPHDT,041.03,T*03
$GPTHS,041.03,A*01
$GPHDT,041.08,T*08
$GPTHS,041.08,A*0A
$GPVTG,040.3,T,040.3,M,021.7,N,040.2,K,A*21
$GPZDA,135235.22,30,01,2020,13,52*62
$WIMWV,358.6,R,011.1,M,A*29
$SDDPT,200.0,000.0*55
$GPHDT,041.12,T*03
$GPTHS,041.12,A*01
$GPROT,27.30,A*37
$GPHDT,041.16,T*07
$GPTHS,041.16,A*05
$GPHDT,041.20,T*02
$GPTHS,041.20,A*00
$GPHDT,041.24,T*06
$GPTHS,041.24,A*04
$GPHDT,041.28,T*0A
$GPTHS,041.28,A*08
$GPHDT,041.31,T*02
$GPTHS,041.31,A*00
$GPROT,22.89,A*30
$GPGGA,135235.87,6024.627974,N,00516.117361,E,2,08,1.7,31.0,M,10.0,M,10.0,1021*4B
$GPHDT,041.35,T*06
$GPTHS,041.35,A*04
$GPHDT,041.38,T*0B
$GPTHS,041.38,A*09
$GPHDT,041.42,T*06
$GPTHS,041.42,A*04
$GPVTG,041.0,T,041.0,M,022.4,N,041.5,K,A*27
$GPZDA,135236.17,30,01,2020,13,52*67
$WIMWV,359.2,R,011.5,M,A*28
$SDDPT,200.0,000.0*55
$GPHDT,041.45,T*01
$GPTHS,041.45,A*03
$GPHDT,041.48,T*0C
$GPTHS,041.48,A*0E
$GPROT,19.82,A*33
$GPHDT,041.51,T*04
$GPTHS,041.51,A*06
$GPHDT,041.54,T*01
$GPTHS,041.54,A*03
$GPHDT,041.57,T*02
$GPTHS,041.57,A*00
$GPHDT,041.60,T*06
$GPTHS,041.60,A*04
$GPHDT,041.62,T*04
$GPTHS,041.62,A*06
$GPROT,17.48,A*3B
$GPHDT,041.65,T*03
$GPTHS,041.65,A*01
$GPHDT,041.68,T*0E
$GPTHS,041.68,A*0C
$GPHDT,041.71,T*06
$GPTHS,041.71,A*04
$GPVTG,041.4,T,041.4,M,023.1,N,042.7,K,A*22
$GPZDA,135237.13,30,01,2020,13,52*62
$WIMWV,359.5,R,011.8,M,A*22
$SDDPT,200.0,000.0*55
$GPHDT,041.73,T*04
$GPTHS,041.73,A*06
$GPHDT,041.76,T*01
$GPTHS,041.76,A*03
$GPROT,15.84,A*39
$GPHDT,041.79,T*0E
$GPTHS,041.79,A*0C
$GPHDT,041.81,T*09
$GPTHS,041.81,A*0B
$GPHDT,041.84,T*0C
$GPTHS,041.84,A*0E
$GPHDT,041.86,T*0E
$GPTHS,041.86,A*0C
$GPHDT,041.88,T*00
$GPTHS,041.88,A*02
$GPGGA,135237.81,6024.637212,N,00516.133601,E,2,08,1.7,31.0,M,10.0,M,10.0,1021*40
$GPROT,14.44,A*34
$GPHDT,041.90,T*09
$GPTHS,041.90,A*0B
$GPHDT,041.93,T*0A
$GPTHS,041.93,A*08
$GPHDT,041.95,T*0C
$GPTHS,041.95,A*0E
$GPVTG,041.7,T,041.7,M,023.7,N,043.9,K,A*2B
$GPZDA,135238.82,30,01,2020,13,52*65
$WIMWV,359.6,R,012.2,M,A*28
$SDDPT,200.0,000.0*55
$GPHDT,041.97,T*0E
$GPTHS,041.97,A*0C
$GPHDT,041.99,T*00
$GPTHS,041.99,A*02
$GPROT,13.55,A*33
$GPHDT,042.02,T*01
$GPTHS,042.02,A*03
$GPHDT,042.04,T*07
$GPTHS,042.04,A*05
$GPHDT,042.06,T*05
$GPTHS,042.06,A*07
$GPHDT,042.08,T*0B
$GPTHS,042.08,A*09
$GPHDT,042.10,T*02
$GPTHS,042.10,A*00
$GPROT,12.78,A*3D
$GPHDT,042.12,T*00
$GPTHS,042.12,A*02
$GPHDT,042.14,T*06
$GPTHS,042.14,A*04
$GPVTG,042.0,T,042.0,M,024.3,N,045.0,K,A*27
$GPZDA,135239.34,30,01,2020,13,52*69
$WIMWV,359.7,R,012.5,M,A*2E
$SDDPT,200.0,000.0*55
$GPHDT,042.16,T*04
$GPTHS,042.16,A*06
$GPHDT,042.17,T*05
$GPTHS,042.17,A*07
$GPHDT,042.18,T*0A
$GPTHS,042.18,A*08
$GPROT,5.46,A*06
$GPHDT,042.16,T*04
$GPTHS,042.16,A*06
$GPHDT,042.12,T*00
$GPTHS,042.12,A*02
$GPHDT,042.05,T*06
$GPTHS,042.05,A*04
$GPHDT,041.93,T*0A
$GPTHS,041.93,A*08
$GPHDT,041.83,T*0B
$GPTHS,041.83,A*09
$GPGGA,135239.74,6024.646899,N,00516.150919,E,2,08,1.7,31.0,M,10.0,M,10.0,1021*48
$GPROT,-66.08,A*14
$GPHDT,041.64,T*02
$GPTHS,041.64,A*00
$GPHDT,041.39,T*0A
$GPTHS,041.39,A*08
$GPVTG,042.4,T,042.4,M,024.8,N,046.0,K,A*2F
$GPZDA,135239.98,30,01,2020,13,52*6F
$WIMWV,358.6,R,012.8,M,A*23
$SDDPT,200.0,000.0*55
$GPHDT,041.06,T*06
$GPTHS,041.06,A*04
$GPHDT,040.67,T*00
$GPTHS,040.67,A*02
$GPHDT,040.19,T*09
$GPTHS,040.19,A*0B
$GPROT,-237.54,A*2B
$GPHDT,039.62,T*0B
$GPTHS,039.62,A*09
$GPHDT,038.97,T*00
$GPTHS,038.97,A*02
$GPHDT,038.23,T*0F
$GPTHS,038.23,A*0D
$GPHDT,037.39,T*0B
$GPTHS,037.39,A*09
$GPHDT,036.79,T*0E
$GPTHS,036.79,A*0C
$GPROT,-480.71,A*26
$GPHDT,035.81,T*0A
$GPTHS,035.81,A*08
$GPHDT,034.75,T*00
$GPTHS,034.75,A*02
$GPVTG,039.6,T,039.6,M,024.9,N,046.1,K,A*2F
$GPZDA,135240.93,30,01,2020,13,52*6A
$WIMWV,001.1,R,012.7,M,A*24
$SDDPT,200.0,000.0*55
$GPHDT,033.62,T*01
$GPTHS,033.62,A*03
$GPHDT,032.43,T*03
$GPTHS,032.43,A*01
$GPHDT,031.19,T*0F
$GPTHS,031.19,A*0D
$GPROT,-695.57,A*24
$GPHDT,029.90,T*07
$GPTHS,029.90,A*05
$GPHDT,028.55,T*0F
$GPTHS,028.55,A*0D
$GPHDT,027.16,T*07
$GPTHS,027.16,A*05
$GPHDT,025.73,T*06
$GPTHS,025.73,A*04
$GPGGA,135241.68,6024.657465,N,00516.166863,E,2,08,1.7,31.0,M,10.0,M,10.0,1021*4C
$GPHDT,024.74,T*00
$GPTHS,024.74,A*02
$GPROT,-840.30,A*23
$GPHDT,023.23,T*05
$GPTHS,023.23,A*07
$GPVTG,029.8,T,029.8,M,024.2,N,044.8,K,A*2F
$GPZDA,135241.89,30,01,2020,13,52*60
$WIMWV,011.2,R,012.1,M,A*20
$SDDPT,200.0,000.0*55
$GPHDT,021.67,T*07
$GPTHS,021.67,A*05
$GPHDT,020.06,T*01
$GPTHS,020.06,A*03
$GPHDT,018.40,T*08
$GPTHS,018.40,A*0A
$GPHDT,016.69,T*0D
$GPTHS,016.69,A*0F
$GPROT,-976.12,A*27
$GPHDT,014.93,T*0A
$GPTHS,014.93,A*08
$GPHDT,013.12,T*04
$GPTHS,013.12,A*06
$GPHDT,011.26,T*01
$GPTHS,011.26,A*03
$GPHDT,009.35,T*0A
$GPTHS,009.35,A*08
$GPHDT,008.04,T*09
$GPTHS,008.04,A*0B
$GPROT,-1119.80,A*1C
$GPHDT,006.05,T*06
$GPTHS,006.05,A*04
$GPVTG,015.7,T,015.7,M,022.6,N,041.9,K,A*29
$GPZDA,135242.84,30,01,2020,13,52*6E
$WIMWV,021.2,R,011.6,M,A*27
$SDDPT,200.0,000.0*55
$GPHDT,004.02,T*03
$GPTHS,004.02,A*01
$GPHDT,001.97,T*0A
$GPTHS,001.97,A*08
$GPHDT,359.92,T*01
$GPTHS,359.92,A*03
$GPHDT,357.87,T*0B
$GPTHS,357.87,A*09
$GPROT,-1200.11,A*1F
$GPHDT,355.85,T*0B
$GPTHS,355.85,A*09
$GPHDT,353.84,T*0C
$GPTHS,353.84,A*0E
$GPHDT,351.86,T*0C
$GPTHS,351.86,A*0E
$GPHDT,349.90,T*02
$GPTHS,349.90,A*00
$GPGGA,135243.65,6024.668473,N,00516.177746,E,2,08,1.7,31.0,M,10.0,M,10.0,1021*40
$GPHDT,348.61,T*0D
$GPTHS,348.61,A*0F
$GPROT,-1153.02,A*18
$GPHDT,346.70,T*03
$GPTHS,346.70,A*01
$GPVTG,359.5,T,359.5,M,020.4,N,037.8,K,A*29
$GPZDA,135243.79,30,01,2020,13,52*6D
$WIMWV,022.3,R,010.7,M,A*25
$SDDPT,200.0,000.0*55
$GPHDT,344.81,T*0F
$GPTHS,344.81,A*0D
$GPHDT,342.95,T*0C
$GPTHS,342.95,A*0E
$GPHDT,341.10,T*02
$GPTHS,341.10,A*00
$GPHDT,339.27,T*09
$GPTHS,339.27,A*0B
$GPROT,-1086.73,A*17
$GPHDT,337.46,T*00
$GPTHS,337.46,A*02
$GPHDT,335.67,T*01
$GPTHS,335.67,A*03
$GPHDT,333.88,T*06
$GPTHS,333.88,A*04
$GPHDT,332.10,T*06
$GPTHS,332.10,A*04
$GPHDT,330.93,T*0F
$GPTHS,330.93,A*0D
$GPVTG,343.4,T,343.4,M,018.5,N,034.2,K,A*2A
$GPZDA,135244.74,30,01,2020,13,52*67
$WIMWV,019.7,R,009.7,M,A*21
$SDDPT,200.0,000.0*55
$GPROT,-1046.20,A*1D
$GPHDT,329.16,T*0A
$GPTHS,329.16,A*08
$GPHDT,327.41,T*06
$GPTHS,327.41,A*04
$GPHDT,325.66,T*01
$GPTHS,325.66,A*03
$GPHDT,323.91,T*0F
$GPTHS,323.91,A*0D
$GPHDT,322.17,T*00
$GPTHS,322.17,A*02
$GPROT,-1027.41,A*1D
$GPHDT,320.43,T*03
$GPTHS,320.43,A*01
$GPHDT,318.70,T*08
$GPTHS,318.70,A*0A
$GPHDT,316.97,T*0F
$GPTHS,316.97,A*0D
$GPHDT,315.24,T*04
$GPTHS,315.24,A*06
$GPGGA,135245.59,6024.678481,N,00516.174944,E,2,08,1.7,31.0,M,10.0,M,10.0,1021*4A
$GPHDT,314.09,T*0A
$GPTHS,314.09,A*08
$GPVTG,327.5,T,327.5,M,016.8,N,031.1,K,A*2F
$GPZDA,135245.69,30,01,2020,13,52*6A
$WIMWV,019.4,R,008.8,M,A*2C
$SDDPT,200.0,000.0*55
$GPROT,-1015.94,A*14
$GPHDT,312.37,T*01
$GPTHS,312.37,A*03
$GPHDT,310.65,T*04
$GPTHS,310.65,A*06
$GPHDT,308.93,T*04
$GPTHS,308.93,A*06
$GPHDT,307.20,T*03
$GPTHS,307.20,A*01
$GPHDT,305.48,T*0F
$GPTHS,305.48,A*0D
$GPROT,-1013.46,A*1D
$GPHDT,303.76,T*04
$GPTHS,303.76,A*06
$GPHDT,302.03,T*07
$GPTHS,302.03,A*05
$GPHDT,300.30,T*05
$GPTHS,300.30,A*07
$GPHDT,298.58,T*0B
$GPTHS,298.58,A*09
$GPHDT,297.42,T*0F
$GPTHS,297.42,A*0D
$GPVTG,311.9,T,311.9,M,015.4,N,028.6,K,A*2F
$GPZDA,135246.65,30,01,2020,13,52*65
$WIMWV,021.3,R,008.1,M,A*29
$SDDPT,200.0,000.0*55
$GPROT,-1016.59,A*16
$GPHDT,295.69,T*04
$GPTHS,295.69,A*06
$GPHDT,293.96,T*02
$GPTHS,293.96,A*00
$GPHDT,292.22,T*0C
$GPTHS,292.22,A*0E
$GPHDT,290.48,T*02
$GPTHS,290.48,A*00
$GPHDT,288.75,T*05
$GPTHS,288.75,A*07
$GPROT,-1021.68,A*10
$GPHDT,287.01,T*09
$GPTHS,287.01,A*0B
$GPHDT,285.27,T*0F
$GPTHS,285.27,A*0D
$GPHDT,283.53,T*0A
$GPTHS,283.53,A*08
$GPGGA,135247.53,6024.684920,N,00516.163896,E,2,08,1.7,31.0,M,10.0,M,10.0,1021*4F
$GPHDT,281.80,T*06
$GPTHS,281.80,A*04
$GPVTG,296.5,T,296.5,M,014.2,N,026.3,K,A*23
$GPZDA,135247.60,30,01,2020,13,52*61
$WIMWV,023.6,R,007.6,M,A*26
$SDDPT,200.0,000.0*55
$GPHDT,280.66,T*0F
$GPTHS,280.66,A*0D
$GPROT,-1012.98,A*1F
$GPHDT,278.97,T*06
$GPTHS,278.97,A*04
$GPHDT,277.31,T*05
$GPTHS,277.31,A*07
$GPHDT,275.67,T*04
$GPTHS,275.67,A*06
$GPHDT,274.08,T*0C
$GPTHS,274.08,A*0E
$GPHDT,272.53,T*04
$GPTHS,272.53,A*06
$GPROT,-934.53,A*24
$GPHDT,271.03,T*02
$GPTHS,271.03,A*00
$GPHDT,269.56,T*0B
$GPTHS,269.56,A*09
$GPHDT,268.13,T*0B
$GPTHS,268.13,A*09
$GPHDT,266.74,T*04
$GPTHS,266.74,A*06
$GPVTG,280.3,T,280.3,M,013.7,N,025.4,K,A*25
$GPZDA,135248.58,30,01,2020,13,52*65
$WIMWV,021.3,R,007.3,M,A*24
$SDDPT,200.0,000.0*55
$GPHDT,265.84,T*08
$GPTHS,265.84,A*0A
$GPROT,-821.30,A*24
$GPHDT,264.51,T*01
$GPTHS,264.51,A*03
$GPHDT,263.21,T*01
$GPTHS,263.21,A*03
$GPHDT,261.95,T*0C
$GPTHS,261.95,A*0E
$GPHDT,260.71,T*07
$GPTHS,260.71,A*05
$GPHDT,259.49,T*06
$GPTHS,259.49,A*04
$GPROT,-732.04,A*2E
$GPHDT,258.29,T*01
$GPTHS,258.29,A*03
$GPHDT,257.11,T*05
$GPTHS,257.11,A*07
$GPHDT,255.94,T*0A
$GPTHS,255.94,A*08
$GPGGA,135249.47,6024.687288,N,00516.149464,E,2,08,1.7,31.0,M,10.0,M,10.0,1021*47
$GPHDT,254.79,T*08
$GPTHS,254.79,A*0A
$GPVTG,267.2,T,267.2,M,013.9,N,025.7,K,A*28
$GPZDA,135249.54,30,01,2020,13,52*68
$WIMWV,014.2,R,007.2,M,A*22
$SDDPT,200.0,000.0*55
$GPHDT,254.03,T*05
$GPTHS,254.03,A*07
$GPROT,-678.88,A*25
$GPHDT,252.90,T*09
$GPTHS,252.90,A*0B
$GPHDT,251.80,T*0B
$GPTHS,251.80,A*09
$GPHDT,250.71,T*04
$GPTHS,250.71,A*06
$GPHDT,249.65,T*09
$GPTHS,249.65,A*0B
$GPHDT,248.62,T*0F
$GPTHS,248.62,A*0D
$GPROT,-621.09,A*20
$GPHDT,247.62,T*00
$GPTHS,247.62,A*02
$GPHDT,246.65,T*06
$GPTHS,246.65,A*04
$GPHDT,245.71,T*00
$GPTHS,245.71,A*02
$GPVTG,255.3,T,255.3,M,014.4,N,026.7,K,A*21
$GPZDA,135250.49,30,01,2020,13,52*6C
$WIMWV,011.8,R,007.3,M,A*2C
$SDDPT,200.0,000.0*55
$GPHDT,244.80,T*0F
$GPTHS,244.80,A*0D
$GPHDT,244.22,T*07
$GPTHS,244.22,A*05
$GPROT,-537.40,A*29
$GPHDT,243.36,T*05
$GPTHS,243.36,A*07
$GPHDT,242.54,T*00
$GPTHS,242.54,A*02
$GPHDT,241.75,T*00
$GPTHS,241.75,A*02
$GPHDT,241.00,T*02
$GPTHS,241.00,A*00
$GPHDT,240.29,T*08
$GPTHS,240.29,A*0A
$GPROT,-441.24,A*2B
$GPHDT,239.61,T*0A
$GPTHS,239.61,A*08
$GPHDT,238.97,T*02
$GPTHS,238.97,A*00
$GPHDT,238.35,T*0A
$GPTHS,238.35,A*08
$GPGGA,135251.41,6024.685598,N,00516.134464,E,2,08,1.7,31.0,M,10.0,M,10.0,1021*46
$GPVTG,246.3,T,246.3,M,015.2,N,028.2,K,A*2D
$GPZDA,135251.44,30,01,2020,13,52*60
$WIMWV,008.0,R,007.7,M,A*28
$SDDPT,200.0,000.0*55
$GPHDT,237.77,T*03
$GPTHS,237.77,A*01
$GPHDT,237.40,T*07
$GPTHS,237.40,A*05
$GPROT,-346.88,A*2D
$GPHDT,236.86,T*0C
$GPTHS,236.86,A*0E
$GPHDT,236.34,T*05
$GPTHS,236.34,A*07
$GPHDT,235.86,T*0F
$GPTHS,235.86,A*0D
$GPHDT,235.41,T*04
$GPTHS,235.41,A*06
$GPHDT,234.99,T*00
$GPTHS,234.99,A*02
$GPROT,-264.57,A*2E
$GPHDT,234.61,T*07
$GPTHS,234.61,A*05
$GPHDT,234.26,T*04
$GPTHS,234.26,A*06
$GPHDT,233.94,T*0A
$GPTHS,233.94,A*08
$GPVTG,238.8,T,238.8,M,016.2,N,030.0,K,A*25
$GPZDA,135252.39,30,01,2020,13,52*69
$WIMWV,008.0,R,008.2,M,A*22
$SDDPT,200.0,000.0*55
$GPHDT,233.64,T*05
$GPTHS,233.64,A*07
$GPHDT,233.46,T*05
$GPTHS,233.46,A*07
$GPROT,-176.22,A*2C
$GPHDT,233.21,T*04
$GPTHS,233.21,A*06
$GPHDT,232.98,T*07
$GPTHS,232.98,A*05
$GPHDT,232.78,T*09
$GPTHS,232.78,A*0B
$GPHDT,232.59,T*0A
$GPTHS,232.59,A*08
$GPHDT,232.42,T*00
$GPTHS,232.42,A*02
$GPROT,-110.95,A*20
$GPHDT,232.27,T*03
$GPTHS,232.27,A*01
$GPHDT,232.13,T*04
$GPTHS,232.13,A*06
$GPVTG,234.6,T,234.6,M,017.2,N,031.9,K,A*2C
$GPZDA,135253.34,30,01,2020,13,52*65
$WIMWV,006.7,R,008.8,M,A*21
$SDDPT,200.0,000.0*55
$GPGGA,135253.34,6024.681537,N,00516.119142,E,2,08,1.7,31.0,M,10.0,M,10.0,1021*49
$GPHDT,232.00,T*06
$GPTHS,232.00,A*04
$GPHDT,231.89,T*04
$GPTHS,231.89,A*06
$GPHDT,231.81,T*0C
$GPTHS,231.81,A*0E
$GPROT,-71.43,A*1D
$GPHDT,231.70,T*02
$GPTHS,231.70,A*00
$GPHDT,231.60,T*03
$GPTHS,231.60,A*01
$GPHDT,231.50,T*00
$GPTHS,231.50,A*02
$GPHDT,231.40,T*01
$GPTHS,231.40,A*03
$GPHDT,231.31,T*07
$GPTHS,231.31,A*05
$GPROT,-55.81,A*15
$GPHDT,231.23,T*04
$GPTHS,231.23,A*06
$GPHDT,231.15,T*01
$GPTHS,231.15,A*03
$GPVTG,232.8,T,232.8,M,018.1,N,033.6,K,A*2D
$GPZDA,135254.30,30,01,2020,13,52*66
$WIMWV,003.4,R,009.3,M,A*2D
$SDDPT,200.0,000.0*55
$GPHDT,231.07,T*02
$GPTHS,231.07,A*00
$GPHDT,230.99,T*04
$GPTHS,230.99,A*06
$GPHDT,230.95,T*08
$GPTHS,230.95,A*0A
$GPROT,-43.69,A*14
$GPHDT,230.88,T*04
$GPTHS,230.88,A*06
$GPHDT,230.82,T*0E
$GPTHS,230.82,A*0C
$GPHDT,230.76,T*05
$GPTHS,230.76,A*07
$GPHDT,230.73,T*00
$GPTHS,230.73,A*02
$GPHDT,230.71,T*02
$GPTHS,230.71,A*00
$GPROT,-20.42,A*18
$GPHDT,230.71,T*02
$GPTHS,230.71,A*00
$GPHDT,230.72,T*01
$GPTHS,230.72,A*03
$GPVTG,231.3,T,231.3,M,019.0,N,035.2,K,A*2F
$GPZDA,135255.25,30,01,2020,13,52*63
$WIMWV,002.5,R,009.7,M,A*29
$SDDPT,200.0,000.0*55
$GPGGA,135255.28,6024.675953,N,00516.103094,E,2,08,1.7,31.0,M,10.0,M,10.0,1021*46
$GPHDT,230.74,T*07
$GPTHS,230.74,A*05
$GPHDT,230.78,T*0B
$GPTHS,230.78,A*09
$GPHDT,230.81,T*0D
$GPTHS,230.81,A*0F
$GPROT,20.08,A*3B
$GPHDT,230.87,T*0B
$GPTHS,230.87,A*09
$GPHDT,230.93,T*0E
$GPTHS,230.93,A*0C
$GPHDT,231.00,T*05
$GPTHS,231.00,A*07
$GPHDT,231.09,T*0C
$GPTHS,231.09,A*0E
$GPHDT,231.18,T*0C
$GPTHS,231.18,A*0E
$GPROT,47.86,A*3C
$GPHDT,231.27,T*00
$GPTHS,231.27,A*02
$GPVTG,231.3,T,231.3,M,019.9,N,036.8,K,A*2F
$GPZDA,135256.20,30,01,2020,13,52*65
$WIMWV,000.5,R,010.2,M,A*26
$SDDPT,200.0,000.0*55
$GPHDT,231.38,T*0E
$GPTHS,231.38,A*0C
$GPHDT,231.48,T*09
$GPTHS,231.48,A*0B
$GPHDT,231.60,T*03
$GPTHS,231.60,A*01
$GPHDT,231.68,T*0B
$GPTHS,231.68,A*09
$GPROT,66.30,A*32
$GPHDT,231.80,T*0D
$GPTHS,231.80,A*0F
$GPHDT,231.92,T*0E
$GPTHS,231.92,A*0C
$GPHDT,232.05,T*03
$GPTHS,232.05,A*01
$GPHDT,232.19,T*0E
$GPTHS,232.19,A*0C
$GPHDT,232.32,T*07
$GPTHS,232.32,A*05
$GPROT,78.26,A*3A
$GPHDT,232.46,T*04
$GPTHS,232.46,A*06
$GPVTG,231.9,T,231.9,M,020.7,N,038.3,K,A*2E
$GPZDA,135257.15,30,01,2020,13,52*62
$WIMWV,359.6,R,010.6,M,A*2E
$SDDPT,200.0,000.0*55
$GPHDT,232.61,T*01
$GPTHS,232.61,A*03
$GPGGA,135257.22,6024.669418,N,00516.086081,E,2,08,1.7,31.0,M,10.0,M,10.0,1021*49
$GPHDT,232.75,T*04
$GPTHS,232.75,A*06
$GPHDT,232.90,T*0F
$GPTHS,232.90,A*0D
$GPHDT,233.00,T*07
$GPTHS,233.00,A*05
$GPROT,85.94,A*31
$GPHDT,233.15,T*03
$GPTHS,233.15,A*01
$GPHDT,233.30,T*04
$GPTHS,233.30,A*06
$GPHDT,233.45,T*06
$GPTHS,233.45,A*04
$GPHDT,233.61,T*00
$GPTHS,233.61,A*02
$GPHDT,233.76,T*06
$GPTHS,233.76,A*04
$GPROT,90.93,A*32
$GPHDT,233.92,T*0C
$GPTHS,233.92,A*0E
$GPVTG,233.0,T,233.0,M,021.5,N,039.8,K,A*27
$GPZDA,135258.10,30,01,2020,13,52*68
$WIMWV,359.0,R,011.0,M,A*2F
$SDDPT,200.0,000.0*55
$GPHDT,234.08,T*08
$GPTHS,234.08,A*0A
$GPHDT,234.24,T*06
$GPTHS,234.24,A*04
$GPHDT,234.40,T*04
$GPTHS,234.40,A*06
$GPHDT,234.50,T*05
$GPTHS,234.50,A*07
$GPROT,93.96,A*34
$GPHDT,234.66,T*00
$GPTHS,234.66,A*02
$GPHDT,234.83,T*0B
$GPTHS,234.83,A*09
$GPHDT,234.99,T*00
$GPTHS,234.99,A*02
$GPHDT,235.15,T*05
$GPTHS,235.15,A*07
$GPHDT,235.31,T*03
$GPTHS,235.31,A*01
$GPVTG,234.4,T,234.4,M,022.2,N,041.1,K,A*25
$GPZDA,135259.60,30,01,2020,13,52*6E
$WIMWV,358.6,R,011.4,M,A*2C
$SDDPT,200.0,000.0*55
$GPROT,95.52,A*3A
$GPHDT,235.48,T*0D
$GPTHS,235.48,A*0F
$GPGGA,135259.16,6024.662508,N,00516.067442,E,2,08,1.7,31.0,M,10.0,M,10.0,1021*4F
$GPHDT,235.64,T*03
$GPTHS,235.64,A*01
$GPHDT,235.80,T*09
$GPTHS,235.80,A*0B
$GPHDT,235.97,T*0F
$GPTHS,235.97,A*0D
$GPHDT,236.07,T*05
$GPTHS,236.07,A*07
$GPROT,95.33,A*3D
$GPHDT,236.23,T*03
$GPTHS,236.23,A*01
$GPHDT,236.39,T*08
$GPTHS,236.39,A*0A
$GPHDT,236.54,T*03
$GPTHS,236.54,A*01
$GPHDT,236.69,T*0D
$GPTHS,236.69,A*0F
$GPHDT,236.83,T*09
$GPTHS,236.83,A*0B
$GPVTG,235.9,T,235.9,M,022.9,N,042.4,K,A*28
$GPZDA,135300.12,30,01,2020,13,53*67
$WIMWV,358.3,R,011.7,M,A*2A
$SDDPT,200.0,000.0*55
